"Rowid_","ID","YEAR","FULL_ADDRE","CITY","STATE","COUNTRY","LATITUDE","LONGITUDE","Join_id","String","CHECK","AFFILIAT_0","AFFILIAT1","UPDATETAG","State","US_county_id","US_county_name","US_metro_id","US_metro_name","Other_metro","Europe_NUTS_3_rev"
1,"WOS:000310364400255",2012,"Univ Michigan, Sch Dent, Ann Arbor, MI 48109 USA","Ann Arbor","MI","USA",42.2821006775,-83.7484664917,11460,"Ann Arbor MI United States","old mapped address",152843,153197,0,"Michigan",1623021,"Washtenaw County",11460,"Ann Arbor, MI Metro Area"," "," "
2,"WOS:000208621501701",2009,"Indiana Univ Sch Med, Dept Cellular & Integrat Physiol, Indianapolis, IN USA","Indianapolis","IN","USA",39.766910553,-86.1499633789,26900,"Indianapolis IN United States","old mapped address",50430,50447,0,"Indiana",450371,"Marion County",26900,"Indianapolis-Carmel-Anderson, IN Metro Area"," "," "
3,"WOS:000315444100006",2010,"Arizona State Univ, Sch Engn Matter Transport & Energy, Tempe, AZ 85287 USA","Tempe","AZ","USA",33.4255104065,-111.937423706,38060,"Tempe AZ United States","old mapped address",31850,31884,0,"Arizona",37026,"Maricopa County",38060,"Phoenix-Mesa-Scottsdale, AZ Metro Area"," "," "
4,"WOS:000302247800012",2012,"Indiana Univ, Dept Kinesiol, Bloomington, IN 47405 USA","Bloomington","IN","USA",39.1665916443,-86.5342407227,14020,"Bloomington IN United States","old mapped address",22857,23063,0,"Indiana",451680,"Monroe County",14020,"Bloomington, IN Metro Area"," "," "
5,"WOS:000298143000018",2012,"Harvard Univ, Sch Publ Hlth, Ctr Hlth Decis Sci, Boston, MA 02115 USA","Boston","MA","USA",42.3586616516,-71.0567398071,14460,"Boston MA United States","old mapped address",9638,9972,0,"Massachusetts",606939,"Suffolk County",14460,"Boston-Cambridge-Newton, MA-NH Metro Area"," "," "
6,"WOS:000279929100004",2010,"Mem Sloan Kettering Canc Ctr, New York, NY USA","New York","NY","USA",40.7820014954,-73.831703186,35620,"New York NY United States","old mapped address",6258,6583,0,"New York",974139,"Queens County",35620,"New York-Newark-Jersey City, NY-NJ-PA Metro Area"," "," "
7,"WOS:000275814500044",2010,"Northwestern Univ, Ctr Canc, Chicago, IL 60611 USA","Chicago","IL","USA",41.8842506409,-87.6324462891,16980,"Chicago IL United States","old mapped address",5637,6119,0,"Illinois",1784766,"Cook County",16980,"Chicago-Naperville-Elgin, IL-IN-WI Metro Area"," "," "
8,"WOS:000286372700008",2011,"Johns Hopkins Sch Med, Dept Med, Baltimore, MD USA","Baltimore","MD","USA",39.2905807495,-76.6092605591,12580,"Baltimore MD United States","old mapped address",4776,4936,0,"Maryland",1702381,"Baltimore city",12580,"Baltimore-Columbia-Towson, MD Metro Area"," "," "
9,"WOS:000260261100020",2008,"Univ Calif Los Angeles, Dept Med, Los Angeles, CA 90024 USA","Los Angeles","CA","USA",34.0534896851,-118.245323181,31080,"Los Angeles CA United States","old mapped address",4814,4935,0,"California",277283,"Los Angeles County",31080,"Los Angeles-Long Beach-Anaheim, CA Metro Area"," "," "
10,"WOS:000275312300020",2010,"Fox Chase Canc Ctr, Philadelphia, PA 19111 USA","Philadelphia","PA","USA",39.9691505432,-75.2064437866,37980,"Philadelphia PA United States","old manual",4132,4312,0,"Pennsylvania",1209187,"Philadelphia County",37980,"Philadelphia-Camden-Wilmington, PA-NJ-DE-MD Metro Area"," "," "
11,"WOS:000278489800007",2010,"Fred Hutchinson Canc Res Ctr, Div Publ Hlth Sci, Seattle, WA 98104 USA","Seattle","WA","USA",47.6035690308,-122.329452515,42660,"Seattle WA United States","old mapped address",4065,4338,0,"Washington",1531933,"King County",42660,"Seattle-Tacoma-Bellevue, WA Metro Area"," "," "
12,"WOS:000295752800516",2011,"Millennium Pharmaceut Inc, Clin Res, Cambridge, MA USA","Cambridge","MA","USA",42.3667907715,-71.106010437,14460,"Cambridge MA United States","old mapped address",3769,4043,0,"Massachusetts",606935,"Middlesex County",14460,"Boston-Cambridge-Newton, MA-NH Metro Area"," "," "
13,"WOS:000292209200017",2011,"Chinese Acad Sci, Grad Sch, Beijing 200049, Peoples R China","Beijing"," ","Peoples R China",39.9065704346,116.387649536,"Beijing China","Beijing Beijing China","old mapped address",3158,3210,0," "," "," "," "," ","Beijing China"," "
14,"WOS:000295578002724",2011,"Baylor Coll Med, Houston, TX 77030 USA","Houston","TX","USA",29.7604503632,-95.3697814941,26420,"Houston TX United States","old mapped address",3539,3738,0,"Texas",1383886,"Harris County",26420,"Houston-The Woodlands-Sugar Land, TX Metro Area"," "," "
15,"WOS:000259244300001",2008,"Univ Phoenix, Phoenix, AZ 85040 USA","Phoenix","AZ","USA",33.4482498169,-112.075798035,38060,"Phoenix AZ United States","old mapped address",4143,4151,0,"Arizona",37026,"Maricopa County",38060,"Phoenix-Mesa-Scottsdale, AZ Metro Area"," "," "
16,"WOS:000304125300014",2012,"Univ Pittsburgh, Dept Hist & Philosophy Sci, Pittsburgh, PA USA","Pittsburgh","PA","USA",40.4383392334,-79.997467041,38300,"Pittsburgh PA United States","old mapped address",3124,3406,0,"Pennsylvania",1213657,"Allegheny County",38300,"Pittsburgh, PA Metro Area"," "," "
17,"WOS:000273632300008",2010,"NIAAA, Lab Mol Signaling, NIH, Bethesda, MD 20892 USA","Bethesda","MD","USA",38.9863700867,-77.0969161987,47900,"Bethesda MD United States","old mapped address",3029,3052,0,"Maryland",1712500,"Montgomery County",47900,"Washington-Arlington-Alexandria, DC-VA-MD-WV Metro Area"," "," "
18,"WOS:000287011400486",2011,"Emory Univ, Atlanta, GA 30322 USA","Atlanta","GA","USA",33.7483100891,-84.3911132813,12060,"Atlanta GA United States","old mapped address",3296,3307,0,"Georgia",1694833,"Fulton County",12060,"Atlanta-Sandy Springs-Roswell, GA Metro Area"," "," "
19,"WOS:000286154600044",2011,"Wayne State Univ, Dept Psychol, Behav & Cognit Neurosci Program, Detroit, MI 48202 USA","Detroit","MI","USA",42.3316802979,-83.047996521,19820,"Detroit MI United States","old mapped address",3139,3246,0,"Michigan",1623022,"Wayne County",19820,"Detroit-Warren-Dearborn, MI Metro Area"," "," "
20,"WOS:000283615000008",2010,"Fermilab Natl Accelerator Lab, Accelerator Div Cryogen Syst, Batavia, IL 60510 USA","Batavia","IL","USA",41.8499984741,-88.3088226318,16980,"Batavia IL United States","old mapped address",490,2675,0,"Illinois",424246,"Kane County",16980,"Chicago-Naperville-Elgin, IL-IN-WI Metro Area"," "," "
21,"WOS:000307680100005",2012,"Royal Holloway Univ London, Dept Phys, London, Surrey, England","London","Surrey","England",51.5064201355,-0.1272100061,"LONDON","London England United Kingdom","old mapped address",2237,2646,0," "," "," "," "," "," ","LONDON"
22,"WOS:000277179500005",2010,"Barts & London Queen Marys Sch Med & Dent, William Harvey Res Inst, Clin Pharmacol & Genome Ctr, London, England","London"," ","England",51.5064201355,-0.1272100061,"LONDON","London England United Kingdom","old mapped address",2237,2646,0," "," "," "," "," "," ","LONDON"
23,"WOS:000282608800002",2010,"Washington Univ, Sch Med, St Louis, MO 63130 USA","St Louis","MO","USA",38.6277503967,-90.1995620728,41180,"St Louis MO United States","old mapped address",2784,2853,0,"Missouri",767557,"St. Louis city",41180,"St. Louis, MO-IL Metro Area"," "," "
24,"WOS:000324014200003",2013,"Duke Univ, Med Ctr, Div Pediat Blood & Marrow Transplantat, Durham, NC USA","Durham","NC","USA",35.9954185486,-78.8964385986,20500,"Durham NC United States","old mapped address",2523,2684,0,"North Carolina",1008550,"Durham County",20500,"Durham-Chapel Hill, NC Metro Area"," "," "
25,"WOS:000330596100517",2013,"Univ Calif San Francisco, San Francisco, CA 94143 USA","San Francisco","CA","USA",37.7771186829,-122.419639587,41860,"San Francisco CA United States","old mapped address",2485,2501,0,"California",277302,"San Francisco County",41860,"San Francisco-Oakland-Hayward, CA Metro Area"," "," "
26,"WOS:000279990300028",2010,"Amer Psychol Assoc, Soc Psychol Study Lesbian Gay Bisexual & Transgen, Div 44, Washington, DC USA","Washington","DC","USA",38.9346389771,-77.0716629028,47900,"Washington DC United States","old manual",2475,2582,0,"District of Columbia",1702382,"District of Columbia",47900,"Washington-Arlington-Alexandria, DC-VA-MD-WV Metro Area"," "," "
28,"WOS:000289662202181",2010,"EntreMed Inc, Torronto, ON, Canada","Torronto","ON","Canada",43.6573982239,-79.432800293,"Toronto ON Canada","Toronto ON Canada","old mapped address",2294,2658,0," "," "," "," "," ","Toronto ON Canada"," "
27,"WOS:000274141600113",2010,"Univ Toronto, Toronta, ON, Canada","Toronta","ON","Canada",43.6573982239,-79.432800293,"Toronto ON Canada","Toronto ON Canada","old mapped address",2294,2658,0," "," "," "," "," ","Toronto ON Canada"," "
29,"WOS:000304105400001",2012,"Univ Toronto, Toronto, ON M5S 1A7, Canada","Toronto","ON","Canada",43.6573982239,-79.432800293,"Toronto ON Canada","Toronto ON Canada","old mapped address",2293,2657,0," "," "," "," "," ","Toronto ON Canada"," "
30,"WOS:000306416500040",2012,"Ohio State Univ, Columbus, OH 43210 USA","Columbus","OH","USA",39.9619903564,-83.002746582,18140,"Columbus OH United States","old mapped address",2506,2593,0,"Ohio",1074037,"Franklin County",18140,"Columbus, OH Metro Area"," "," "
31,"WOS:000293135700010",2011,"Univ Calif Berkeley, Space Sci Lab, Berkeley, CA 94720 USA","Berkeley","CA","USA",37.8698806763,-122.27053833,41860,"Berkeley CA United States","old mapped address",1997,2294,0,"California",1675839,"Alameda County",41860,"San Francisco-Oakland-Hayward, CA Metro Area"," "," "
32,"WOS:000289008500003",2011,"Purdue Univ, Krannert Sch Management, W Lafayette, IN 47907 USA","W Lafayette","IN","USA",40.4310417175,-86.9136505127,29200,"West Lafayette IN United States","old mapped address",2388,2568,0,"Indiana",450393,"Tippecanoe County",29200,"Lafayette-West Lafayette, IN Metro Area"," "," "
33,"WOS:000306478400020",2012,"Cleveland Clin, Neuromuscular Ctr, Cleveland, OH 44106 USA","Cleveland","OH","USA",41.5047492981,-81.6907196045,17460,"Cleveland OH United States","old mapped address",2231,2244,0,"Ohio",1074030,"Cuyahoga County",17460,"Cleveland-Elyria, OH Metro Area"," "," "
34,"WOS:000309409001266",2012,"Yale Canc Ctr, Sect Med Oncol, New Haven, CT USA","New Haven","CT","USA",41.3076210022,-72.924621582,35300,"New Haven CT United States","old mapped address",1773,1925,0,"Connecticut",212798,"New Haven County",35300,"New Haven-Milford, CT Metro Area"," "," "
35,"WOS:000323852100008",2013,"Michigan State Univ, Eli Broad Grad Sch Management, Dept Management, E Lansing, MI 48824 USA","E Lansing","MI","USA",42.7374992371,-84.4837799072,29620,"East Lansing MI United States","old mapped address",2018,2323,0,"Michigan",1622975,"Ingham County",29620,"Lansing-East Lansing, MI Metro Area"," "," "
36,"WOS:000317855400006",2013,"Univ Arizona, Dept Radiol, Tucson, AZ 85724 USA","Tucson","AZ","USA",32.2215499878,-110.96975708,46060,"Tucson AZ United States","old mapped address",2175,2305,0,"Arizona",25446,"Pima County",46060,"Tucson, AZ Metro Area"," "," "
37,"WOS:000258473800014",2008,"Univ Paris 06, CNRS, IN2P3, LPNHE, Paris, France","Paris"," ","France",48.8521232605,2.3564190865,"PARIS","Paris IdF France","old manual",1354,1698,0," "," "," "," "," "," ","PARIS"
38,"WOS:000285629000160",2011,"Shanghai Jiao Tong Univ, Key Lab Power Machinery & Engn, Minist Educ, Shanghai 200240, Peoples R China","Shanghai"," ","Peoples R China",31.2241458893,121.516136169,"Shanghai China","Shanghai  China","old mapped address",2365,2397,0," "," "," "," "," ","Shanghai"," "
39,"WOS:000318114700011",2013,"Stanford Univ, Lucile Packard Childrens Hosp, Sch Med, Stanford, CA 94305 USA","Stanford","CA","USA",37.4296302795,-122.164772034,41940,"Santa Clara Co. CA United States","old manual",1592,1619,0,"California",277307,"Santa Clara County",41940,"San Jose-Sunnyvale-Santa Clara, CA Metro Area"," "," "
40,"WOS:000298464300010",2012,"Univ Wisconsin, Lab Archaeol Chem, Madison, WI 53706 USA","Madison","WI","USA",43.0424690247,-89.403968811,31540,"Madison WI United States","old mapped address",1928,2030,0,"Wisconsin",1581072,"Dane County",31540,"Madison, WI Metro Area"," "," "
41,"WOS:000293442700002",2011,"Univ Minnesota, Minneapolis, MN USA","Minneapolis","MN","USA",44.9790306091,-93.2649307251,33460,"Minneapolis MN United States","old mapped address",1613,1685,0,"Minnesota",659472,"Hennepin County",33460,"Minneapolis-St. Paul-Bloomington, MN-WI Metro Area"," "," "
42,"WOS:000270284700012",2009,"Univ N Carolina, Dept Pediat, Chapel Hill, NC 27599 USA","Chapel Hill","NC","USA",35.9274520874,-79.0392684937,20500,"Chapel Hill NC United States","old mapped address",1863,1880,0,"North Carolina",1008576,"Orange County",20500,"Durham-Chapel Hill, NC Metro Area"," "," "
43,"WOS:000298178400007",2011,"CALTECH, NASA Herschel Sci Ctr, Pasadena, CA 91125 USA","Pasadena","CA","USA",34.1474494934,-118.144271851,31080,"Pasadena CA United States","old mapped address",1434,1537,0,"California",277283,"Los Angeles County",31080,"Los Angeles-Long Beach-Anaheim, CA Metro Area"," "," "
44,"WOS:000301770900004",2012,"Korea Univ, Korea Detector Lab, Seoul, South Korea","Seoul"," ","South Korea",37.5150184631,127.016471863,"Seoul South Korea","Seoul Seoul South Korea","old mapped address",1594,1898,0," "," "," "," "," ","Seoul"," "
45,"WOS:000324493800002",2013,"Sanford Burnham Med Res Inst, Ctr Neurosci Aging & Stem Cell Res, La Jolla, CA 92037 USA","La Jolla","CA","USA",32.8370475769,-117.255386353,41740,"La Jolla CA United States","old mapped address",1987,2017,0,"California",277301,"San Diego County",41740,"San Diego-Carlsbad, CA Metro Area"," "," "
46,"WOS:000259244200609",2008,"Univ Cincinnati, Coll Med, Cincinnati, OH USA","Cincinnati","OH","USA",39.1071281433,-84.5041275024,17140,"Cincinnati OH United States","old mapped address",1651,1652,0,"Ohio",1074043,"Hamilton County",17140,"Cincinnati, OH-KY-IN Metro Area"," "," "
47,"WOS:000297457300019",2011,"Mayo Clin, Rochester, MN USA","Rochester","MN","USA",44.0193481445,-92.4591522217,40340,"Rochester MN United States","old mapped address",1596,1600,0,"Minnesota",659500,"Olmsted County",40340,"Rochester, MN Metro Area"," "," "
48,"WOS:000310955603254",2012,"Univ Texas SW Med Ctr Dallas, Div Digest & Liver Dis, Dallas, TX 75390 USA","Dallas","TX","USA",32.7781486511,-96.7954025269,19100,"Dallas TX United States","old mapped address",1562,1617,0,"Texas",1383842,"Dallas County",19100,"Dallas-Fort Worth-Arlington, TX Metro Area"," "," "
49,"WOS:000327747700019",2013,"Univ Florida, Dept Astron, Bryant Space Sci Ctr 211, Gainesville, FL 32611 USA","Gainesville","FL","USA",29.6519508362,-82.3231811523,23540,"Gainesville FL United States","old mapped address",1365,1508,0,"Florida",308548,"Alachua County",23540,"Gainesville, FL Metro Area"," "," "
50,"WOS:000265131700007",2008,"McGill Univ, Dept Med & Human Genet, Montreal, PQ H3A 2T5, Canada","Montreal","PQ","Canada",45.51720047,-73.5498962402,"Montreal QC Canada","Montreal QC Canada","old mapped address",1217,1447,0," "," "," "," "," ","Montreal QC Canada"," "
51,"WOS:000272277700009",2009,"Univ Tokyo, Dept Neurophysiol, Grad Sch Med, Tokyo 1088639, Japan","Tokyo"," ","Japan",35.6832084656,139.808944702,"Tokyo Japan","Tokyo Tokyo Japan","old mapped address",1215,1298,0," "," "," "," "," ","Tokyo"," "
52,"WOS:000316513500004",2013,"Univ Roma La Sapienza, Dipartimento Fis, I-00185 Rome, Italy","Rome"," ","Italy",41.903049469,12.4958000183,"ITI43","Rome Laz. Italy","old mapped address",867,1174,0," "," "," "," "," "," ","ITI43"
53,"WOS:000283950100016",2010,"Univ Rochester, Med Ctr, Rochester, NY 14642 USA","Rochester","NY","USA",43.1557998657,-77.616317749,40380,"Rochester NY United States","old mapped address",1056,1416,0,"New York",974126,"Monroe County",40380,"Rochester, NY Metro Area"," "," "
54,"WOS:000309961000008",2012,"Vanderbilt Univ, Med Ctr, Dept Pediat Surg, Nashville, TN USA","Nashville","TN","USA",36.1678390503,-86.7781600952,34980,"Nashville TN United States","old mapped address",1333,1384,0,"Tennessee",1639737,"Davidson County",34980,"Nashville-Davidson--Murfreesboro--Franklin, TN Metro Area"," "," "
55,"WOS:000330355800008",2013,"Univ Calif San Diego, Dept Psychiat, San Diego, CA 92103 USA","San Diego","CA","USA",32.7156906128,-117.161720276,41740,"San Diego CA United States","old mapped address",1437,1446,0,"California",277301,"San Diego County",41740,"San Diego-Carlsbad, CA Metro Area"," "," "
56,"WOS:000308544200009",2012,"Univ Oxford, John Radcliffe Hosp, Nuffield Dept Clin Lab Sci, Div Med Sci, Oxford OX3 9DU, Oxon, England","Oxford","Oxon","England",51.7471008301,-1.2568700314,"UKJ14","Oxford England United Kingdom","old mapped address",857,1013,0," "," "," "," "," "," ","UKJ14"
57,"WOS:000270097600010",2009,"Univ Oxford, Corpus Christi Coll, Oxford OX1 2JD, England","Oxford"," ","England",51.7471008301,-1.2568700314,"UKJ14","Oxford England United Kingdom","old mapped address",850,1006,0," "," "," "," "," "," ","UKJ14"
58,"WOS:000297159700028",2011,"Childrens Hosp, Birmingham, AL USA","Birmingham","AL","USA",33.5206794739,-86.8117599487,13820,"Birmingham AL United States","old mapped address",1386,1390,0,"Alabama",161562,"Jefferson County",13820,"Birmingham-Hoover, AL Metro Area"," "," "
59,"WOS:000320956500014",2013,"Kavli Inst Cornell Nanoscale Sci, Ithaca, NY 14853 USA","Ithaca","NY","USA",42.4405097961,-76.4954605103,27060,"Ithaca NY United States","old mapped address",889,1033,0,"New York",974152,"Tompkins County",27060,"Ithaca, NY Metro Area"," "," "
60,"WOS:000284963400047",2010,"Univ Illinois, Dept Phys, Urbana, IL 61801 USA","Urbana","IL","USA",40.1287918091,-88.2220535278,16580,"Urbana IL United States","old manual",950,1173,0,"Illinois",424211,"Champaign County",16580,"Champaign-Urbana, IL Metro Area"," "," "
61,"WOS:000276696200001",2010,"Univ Michigan, Dept Math & Stat, Dearborn, MI 48128 USA","Dearborn","MI","USA",42.3220901489,-83.1762390137,11460,"Dearborn MI United States","New corrected",1334,1334,0,"Michigan",1623022,"Wayne County",19820,"Detroit-Warren-Dearborn, MI Metro Area"," "," "
62,"WOS:000323901300004",2013,"Nikhef Natl Inst Subat Phys, Amsterdam, Netherlands","Amsterdam"," ","Netherlands",52.3306999207,4.8665399551,"NL326","Amsterdam North Holland Netherlands","old mapped address",761,995,0," "," "," "," "," "," ","NL326"
63,"WOS:000264473700009",2009,"US Geol Survey, Boulder, CO 80303 USA","Boulder","CO","USA",40.0157394409,-105.279243469,14500,"Boulder CO United States","old mapped address",1366,1409,0,"Colorado",198122,"Boulder County",14500,"Boulder, CO Metro Area"," "," "
64,"WOS:000298609600002",2011,"Inst Theoret & Expt Phys, Moscow 117259, Russia","Moscow"," ","Russia",55.7569694519,37.615020752,"Moscow Russia","Moscow Moscow City Russia","old mapped address",678,1090,0," "," "," "," "," ","Moscow Russia"," "
65,"WOS:000321855400020",2013,"CERN, Geneva, Switzerland","Geneva"," ","Switzerland",46.2000999451,6.1673002243,"CH013","Geneva GE Switzerland","old mapped address",352,424,0," "," "," "," "," "," ","CH013"
66,"WOS:000304925700001",2012,"Univ Cambridge, Dept Genet, FlyBase, Cambridge CB2 3EH, England","Cambridge"," ","England",52.2284011841,0.1118500009,"UKH12","Cambridge England United Kingdom","old mapped address",950,1023,0," "," "," "," "," "," ","UKH12"
67,"WOS:000304018500006",2010,"TRIUMF, ATLAS Canada Tier Data Ctr 1, Vancouver, BC V6T 2A3, Canada","Vancouver","BC","Canada",49.2811012268,-123.043998718,"Vancouver Canada","Vancouver BC Canada","old mapped address",1099,1222,0," "," "," "," "," ","Vancouver Canada"," "
68,"WOS:000276443000003",2010,"Univ Utah, Coll Nursing, Salt Lake City, UT 84112 USA","Salt Lake City","UT","USA",40.7603111267,-111.888221741,41620,"Salt Lake City UT United States","old mapped address",1066,1085,0,"Utah",1448031,"Salt Lake County",41620,"Salt Lake City, UT Metro Area"," "," "
69,"WOS:000304236400004",2012,"Univ Autonoma Barcelona, Inst Fis Altes Energies, E-08193 Barcelona, Spain","Barcelona"," ","Spain",41.387298584,2.1686398983,"ES511","Barcelona Catalonia Spain","old mapped address",723,816,0," "," "," "," "," "," ","ES511"
70,"WOS:000307269400009",2012,"Univ Pisa, Dipartimento Fis E Fermi, Pisa, Italy","Pisa"," ","Italy",43.7366981506,10.3984003067,"ITI17","Pisa Tosc. Italy","old manual",199,786,0," "," "," "," "," "," ","ITI17"
71,"WOS:000314401500009",2012,"Univ Iowa, Coll Pharm, Iowa City, IA 52242 USA","Iowa City","IA","USA",41.6578216553,-91.5265274048,26980,"Iowa City IA United States","old mapped address",1105,1111,0,"Iowa",465240,"Johnson County",26980,"Iowa City, IA Metro Area"," "," "
72,"WOS:000257290000007",2008,"Penn State Univ, University Pk, PA 16802 USA","University Pk","PA","USA",40.7995681763,-77.8606872559,44300,"University Park PA United States","old mapped address",1234,1245,0,"Pennsylvania",1214720,"Centre County",44300,"State College, PA Metro Area"," "," "
73,"WOS:000288903700014",2011,"Karolinska Univ Hosp, Karolinska Inst, Dept Med, Cardiol Unit, Stockholm, Sweden","Stockholm"," ","Sweden",59.3525009155,18.0326004028,"SE110","Stockholm Stockholm County Sweden","old mapped address",838,930,0," "," "," "," "," "," ","SE110"
74,"WOS:000305463400059",2012,"Natl Radio Astron Observ, Charlottesville, VA 22903 USA","Charlottesville","VA","USA",38.0321311951,-78.4775314331,16820,"Charlottesville VA United States","old mapped address",1034,1157,0,"Virginia",1789068,"Charlottesville city",16820,"Charlottesville, VA Metro Area"," "," "
75,"WOS:000322446800218",2013,"Univ Texas Hlth Sci Ctr San Antonio, San Antonio, TX 78229 USA","San Antonio","TX","USA",29.4245796204,-98.4946136475,41700,"San Antonio TX United States","old mapped address",1163,1168,0,"Texas",1383800,"Bexar County",41700,"San Antonio-New Braunfels, TX Metro Area"," "," "
76,"WOS:000262979800005",2009,"Northwestern Univ, Evanston, IL 60208 USA","Evanston","IL","USA",42.05701828,-87.6864471436,16980,"Evanston IL United States","old manual",847,1034,0,"Illinois",1784766,"Cook County",16980,"Chicago-Naperville-Elgin, IL-IN-WI Metro Area"," "," "
77,"WOS:000265131100008",2008,"Univ Texas, Inst Cellular & Mol Biol, Austin, TX USA","Austin","TX","USA",30.2675895691,-97.7429885864,12420,"Austin TX United States","old mapped address",1081,1115,0,"Texas",1384012,"Travis County",12420,"Austin-Round Rock, TX Metro Area"," "," "
78,"WOS:000259757402544",2008,"Baylor Coll Med, Davis, CA USA","Davis","CA","USA",38.5466918945,-121.744567871,40900,"Davis CA United States","old mapped address",819,1002,0,"California",277321,"Yolo County",40900,"Sacramento--Roseville--Arden-Arcade, CA Metro Area"," "," "
79,"WOS:000253323000011",2008,"Univ Helsinki, Cent Hosp, Dept Clin Physiol & Nucl Med, Helsinki, Finland","Helsinki"," ","Finland",60.2080001831,24.89909935,"FI1B1","Helsinki Southern Finland Finland","old mapped address",733,909,0," "," "," "," "," "," ","FI1B1"
80,"WOS:000267701300010",2009,"Ctr Invest Energet Medioambientales & Tecnol, E-28040 Madrid, Spain","Madrid"," ","Spain",40.4202804565,-3.7057700157,"ES300","Madrid Community of Madrid Spain","old mapped address",933,1032,0," "," "," "," "," "," ","ES300"
81,"WOS:000303221800006",2012,"Univ Munich, Fak Phys, Munich, Germany","Munich"," ","Germany",48.1390991211,11.5144996643,"DE212","Munich BY Germany","old manual",577,737,0," "," "," "," "," "," ","DE212"
82,"WOS:000276194200020",2010,"Univ Notre Dame, Notre Dame, IN 46556 USA","Notre Dame","IN","USA",41.6993293762,-86.2387924194,43780,"Notre Dame IN United States","old mapped address",1007,1208,0,"Indiana",452855,"St. Joseph County",43780,"South Bend-Mishawaka, IN-MI Metro Area"," "," "
83,"WOS:000318009801059",2012,"Oregon Hlth & Sci Univ, Portland, OR 97201 USA","Portland","OR","USA",45.5117912292,-122.675628662,38900,"Portland OR United States","old mapped address",1024,1030,0,"Oregon",1135861,"Multnomah County",38900,"Portland-Vancouver-Hillsboro, OR-WA Metro Area"," "," "
84,"WOS:000272002300013",2009,"Texas A&M Univ, Zachry Dept Civil Engn, College Stn, TX 77843 USA","College Stn","TX","USA",30.6205406189,-96.3258972168,17780,"College Station TX United States","old mapped address",786,954,0,"Texas",1383806,"Brazos County",17780,"College Station-Bryan, TX Metro Area"," "," "
85,"WOS:000266711000003",2009,"Univ Maryland, Sch Nursing, College Pk, MD 20742 USA","College Pk","MD","USA",38.98072052,-76.9372711182,47900,"College Park MD United States","old mapped address",888,963,0,"Maryland",1714670,"Prince George's County",47900,"Washington-Arlington-Alexandria, DC-VA-MD-WV Metro Area"," "," "
86,"WOS:000325488500004",2013,"Sandia Natl Labs, Albuquerque, NM 87123 USA","Albuquerque","NM","USA",35.0841789246,-106.648643494,10740,"Albuquerque NM United States","old mapped address",845,908,0,"New Mexico",1702363,"Bernalillo County",10740,"Albuquerque, NM Metro Area"," "," "
87,"WOS:000313945300002",2013,"Ist Nazl Fis Nucl, Sez Bologna, Milan, Italy","Milan"," ","Italy",45.4519996643,9.1927700043,"ITC4C","Milan Lomb. Italy","old manual",633,714,0," "," "," "," "," "," ","ITC4C"
88,"WOS:000322759500066",2013,"Univ S Florida, Tampa, FL USA","Tampa","FL","USA",27.9465293884,-82.4592666626,45300,"Tampa FL United States","old mapped address",873,873,0,"Florida",295757,"Hillsborough County",45300,"Tampa-St. Petersburg-Clearwater, FL Metro Area"," "," "
89,"WOS:000300275600013",2012,"Brookhaven Natl Lab, Ctr Funct Nanomat, Electron Microscope Grp, Upton, NY 11973 USA","Upton","NY","USA",40.862739563,-72.8876037598,35620,"Upton NY United States","old mapped address",317,580,0,"New York",974149,"Suffolk County",35620,"New York-Newark-Jersey City, NY-NJ-PA Metro Area"," "," "
90,"WOS:000321101400016",2013,"Univ Colorado, Dept Med, Div Pulm Sci & Crit Care Med, Denver, CO USA","Denver","CO","USA",39.7400093079,-104.992301941,19740,"Denver CO United States","old mapped address",773,773,0,"Colorado",198131,"Denver County",19740,"Denver-Aurora-Lakewood, CO Metro Area"," "," "
91,"WOS:000327100600015",2013,"Brown Univ, Alpert Med Sch, Dept Neurol, Providence, RI 02903 USA","Providence","RI","USA",41.8238716125,-71.4119873047,39300,"Providence RI United States","old mapped address",754,982,0,"Rhode Island",1219781,"Providence County",39300,"Providence-Warwick, RI-MA Metro Area"," "," "
92,"WOS:000313012400060",2013,"Med Coll Wisconsin, Dept Biostat, Milwaukee, WI 53226 USA","Milwaukee","WI","USA",43.041809082,-87.9068374634,33340,"Milwaukee WI United States","old mapped address",802,805,0,"Wisconsin",1581100,"Milwaukee County",33340,"Milwaukee-Waukesha-West Allis, WI Metro Area"," "," "
93,"WOS:000294134300014",2011,"Princeton Univ, Dept Comp Sci, Princeton, NJ 08540 USA","Princeton","NJ","USA",40.3603096008,-74.6642837524,45940,"Princeton NJ United States","old mapped address",814,882,0,"New Jersey",882229,"Mercer County",45940,"Trenton, NJ Metro Area"," "," "
94,"WOS:000285162100021",2010,"Arizona State Univ, Dept Appl Biol Sci, Mesa, AZ 85212 USA","Mesa","AZ","USA",33.4170417786,-111.831459045,38060,"Mesa AZ United States","old mapped address",980,980,0,"Arizona",37026,"Maricopa County",38060,"Phoenix-Mesa-Scottsdale, AZ Metro Area"," "," "
95,"WOS:000259145201204",2008,"SUNY Buffalo, Western NewYork VA Med Ctr, Buffalo, NY 14260 USA","Buffalo","NY","USA",42.8854408264,-78.8784637451,15380,"Buffalo NY United States","old mapped address",766,871,0,"New York",974113,"Erie County",15380,"Buffalo-Cheektowaga-Niagara Falls, NY Metro Area"," "," "
96,"WOS:000312616400004",2012,"Natl Neurosci Inst, Dept Neuroradiol, Singapore 308433, Singapore","Singapore"," ","Singapore",1.2896441221,103.84148407,"Singapore","Singapore  Singapore","old mapped address",883,884,0," "," "," "," "," ","Singapore"," "
97,"WOS:000313028500004",2013,"Acad Sinica, Inst Phys, Acad Sinica Grid Comp, Taipei, Taiwan","Taipei"," ","Taiwan",25.0474395752,121.516098023,"Taipei Taiwan","Taipei City  Taiwan","old manual",744,838,0," "," "," "," "," ","Taipei, Taiwan"," "
98,"WOS:000280293500002",2010,"Florida State Univ, Tallahassee, FL 32306 USA","Tallahassee","FL","USA",30.4397697449,-84.2806472778,45220,"Tallahassee FL United States","old mapped address",650,942,0,"Florida",306916,"Leon County",45220,"Tallahassee, FL Metro Area"," "," "
99,"WOS:000287006500010",2011,"Univ Miami, Miller Sch Med, Dept Psychiat & Behav Sci, Miami, FL 33136 USA","Miami","FL","USA",25.774810791,-80.1977310181,33100,"Miami FL United States","old mapped address",697,760,0,"Florida",295755,"Miami-Dade County",33100,"Miami-Fort Lauderdale-West Palm Beach, FL Metro Area"," "," "
100,"WOS:000299293600003",2012,"Argonne Natl Lab, Div High Energy Phys, Argonne, IL 60439 USA","Argonne","IL","USA",40.1241493225,-89.1486282349,30660,"Lemont IL United States","old manual",551,685,0,"Illinois",424255,"Logan County",30660,"Lincoln, IL Micro Area"," "," "
101,"WOS:000299293600003",2012,"Argonne Natl Lab, Div High Energy Phys, Argonne, IL 60439 USA","Argonne","IL","USA",40.1241493225,-89.1486282349,30660,"Lemont IL United States","old mapped address",551,685,0,"Illinois",424255,"Logan County",30660,"Lincoln, IL Micro Area"," "," "
102,"WOS:000288815700005",2011,"Univ Kentucky, Dept Mech Engn, Lexington, KY 40506 USA","Lexington","KY","USA",38.0485916138,-84.5003204346,30460,"Lexington KY United States","old mapped address",810,820,0,"Kentucky",516880,"Fayette County",30460,"Lexington-Fayette, KY Metro Area"," "," "
103,"WOS:000268867900002",2009,"Univ Glasgow, Glasgow G12 8QQ, Lanark, Scotland","Glasgow","Lanark","Scotland",55.8567008972,-4.267250061,"UKM34","Glasgow Scotland United Kingdom","old manual",308,471,0," "," "," "," "," "," ","UKM34"
104,"WOS:000269718700014",2009,"Los Alamos Natl Lab, Los Alamos, NM 87545 USA","Los Alamos","NM","USA",35.8806381226,-106.304389954,31060,"Los Alamos NM United States","old mapped address",715,728,0,"New Mexico",1702366,"Los Alamos County",31060,"Los Alamos, NM Micro Area"," "," "
105,"WOS:000292002100003",2011,"Univ Sydney, Sch Phys, AU Sydney, NSW 2006, Australia","AU Sydney","NSW","Australia",-33.8740005493,151.20300293,"Sydney Australia","Sydney NSW Australia","old mapped address",721,732,0," "," "," "," "," ","Sydney Australia"," "
106,"WOS:000286230100001",2010,"Univ Sydney, Sch Phys, Au Sydney, NSW 2006, Australia","Au Sydney","NSW","Australia",-33.8740005493,151.20300293,"Sydney Australia","Sydney NSW Australia","old mapped address",721,732,0," "," "," "," "," ","Sydney Australia"," "
107,"WOS:000322785400002",2013,"Univ Sydney, Sch Phys, Sydney, NSW 2006, Australia","Sydney","NSW","Australia",-33.8740005493,151.20300293,"Sydney Australia","Sydney NSW Australia","old mapped address",721,732,0," "," "," "," "," ","Sydney Australia"," "
108,"WOS:000262816500071",2009,"Allergan Pharmaceut Inc, Dept Biostat, Irvine, CA 92715 USA","Irvine","CA","USA",33.6872406006,-117.825820923,31080,"Irvine CA United States","old mapped address",734,740,0,"California",277294,"Orange County",31080,"Los Angeles-Long Beach-Anaheim, CA Metro Area"," "," "
109,"WOS:000273804600009",2010,"Univ Bonn, Inst Phys, D-5300 Bonn, Germany","Bonn"," ","Germany",50.732421875,7.1018600464,"DEA22","Bonn NW Germany","old manual",459,544,0," "," "," "," "," "," ","DEA22"
110,"WOS:000273174400001",2010,"Univ Zurich Hosp, Inst Neuropathol, CH-8091 Zurich, Switzerland","Zurich"," ","Switzerland",47.3656005859,8.5059499741,"CH040","Zurich ZH Switzerland","old mapped address",817,828,0," "," "," "," "," "," ","CH040"
111,"WOS:000308326000001",2011,"Univ Hamburg, Inst Expt Phys, Hamburg, Germany","Hamburg"," ","Germany",53.5533409119,9.9924697876,"DE600","Hamburg HH Germany","old manual",435,509,0," "," "," "," "," "," ","DE600"
112,"WOS:000278849300001",2010,"Univ Valencia, Inst Fis Corpuscular, E-46071 Valencia, Spain","Valencia"," ","Spain",39.4631004333,-0.3253200054,"ES523","Valencia Valencian Community Spain","old manual",123,129,0," "," "," "," "," "," ","ES523"
113,"WOS:000309712300043",2012,"Deutsch Zentrum Luft & Raumfahrt DLR, Inst Planetary Res, Berlin, Germany","Berlin"," ","Germany",52.5014076233,13.4023284912,"BERLIN"," BE Germany","old mapped address",705,710,0," "," "," "," "," "," ","BERLIN"
114,"WOS:000301866500019",2012,"No Indiana Canc Res Consortium, South Bend, IN USA","South Bend","IN","USA",41.6790504456,-86.2540435791,43780,"South Bend IN United States","old mapped address",810,810,0,"Indiana",452855,"St. Joseph County",43780,"South Bend-Mishawaka, IN-MI Metro Area"," "," "
115,"WOS:000303326600002",2012,"Virginia Commonwealth Univ, Richmond, VA USA","Richmond","VA","USA",37.5406990051,-77.4336471558,40060,"Richmond VA United States","old mapped address",704,723,0,"Virginia",1789073,"Richmond city",40060,"Richmond, VA Metro Area"," "," "
116,"WOS:000253417800195",2008,"Univ Fed Sao Paulo, Sao Paulo, Brazil","Sao Paulo"," ","Brazil",-23.5628395081,-46.6546401978,"Sao Paulo Brazil","Sao Paulo SP Brazil","old mapped address",669,760,0," "," "," "," "," ","Sao Paulo, Brazil"," "
117,"WOS:000298633600013",2012,"German Canc Res Ctr, Dept Cellular & Mol Pathol, D-6900 Heidelberg, Germany","Heidelberg"," ","Germany",49.4134902954,8.7080698013,"DE125","Heidelberg BW Germany","old manual",533,548,0," "," "," "," "," "," ","DE125"
118,"WOS:000271353400011",2009,"Joint Inst Nucl Res, RU-141980 Dubna, Russia","Dubna"," ","Russia",56.746723175,37.1594657898,"Moscow Russia","Dubna Tverâ€™ Russia","old manual",65,409,0," "," "," "," "," ","Moscow Russia"," "
119,"WOS:000270384900007",2009,"SUNY Stony Brook, Stony Brook, NY 11794 USA","Stony Brook","NY","USA",40.9128303528,-73.1399230957,35620,"Stony Brook NY United States","old mapped address",386,662,0,"New York",974149,"Suffolk County",35620,"New York-Newark-Jersey City, NY-NJ-PA Metro Area"," "," "
120,"WOS:000309621400001",2012,"Univ Bologna, Dipartmento Fis, Bologna, Italy","Bologna"," ","Italy",44.4970016479,11.3182001114,"ITH55","Bologna Em.Rom. Italy","old mapped address",313,489,0," "," "," "," "," "," ","ITH55"
121,"WOS:000254024500011",2008,"Univ Tsukuba, Tsukuba 305, Japan","Tsukuba"," ","Japan",36.0349006653,140.080154419,"Ibaraki Japan","Tsukuba Ibaraki Japan","old mapped address",197,379,0," "," "," "," "," ","Ibaraki"," "
122,"WOS:000307680100010",2012,"Acad Sci Czech Republic, Inst Phys, Ctr Particle Phys, Prague, Czech Republic","Prague"," ","Czech Republic",50.1269187927,14.4567203522,"CZ010","Prague Prague Czech Republic","old mapped address",240,453,0," "," "," "," "," "," ","CZ010"
123,"WOS:000309621400001",2012,"Univ Paris 11, LAL, Orsay, France","Orsay"," ","France",48.8521232605,2.3564190865,"PARIS","Paris IdF France","old manual",194,369,0," "," "," "," "," "," ","PARIS"
124,"WOS:000285200000013",2010,"Univ Tsukuba, Inst Pure & Appl Sci, Tsukuba, JP Ibaraki 3058571, Japan","Tsukuba","JP Ibaraki","Japan",36.0349006653,140.080154419,"Ibaraki Japan","Tsukuba Ibaraki Japan","old mapped address",197,379,0," "," "," "," "," ","Ibaraki"," "
126,"WOS:000285200000011",2010,"Univ Tsukuba, Inst Pure & Appl Sci, Tsukuba, Jp Ibaraki 3058571, Japan","Tsukuba","Jp Ibaraki","Japan",36.0349006653,140.080154419,"Ibaraki Japan","Tsukuba Ibaraki Japan","old mapped address",197,379,0," "," "," "," "," ","Ibaraki"," "
125,"WOS:000273233000006",2009,"Univ Tsukuba, Tsukuba, Ibaraki 305, Japan","Tsukuba","Ibaraki","Japan",36.0349006653,140.080154419,"Ibaraki Japan","Tsukuba Ibaraki Japan","old mapped address",197,379,0," "," "," "," "," ","Ibaraki"," "
127,"WOS:000323901300004",2013,"Inst Natl Polytech Grenoble, F-38031 Grenoble, France","Grenoble"," ","France",45.1859016418,5.7165999413,"FR714","Grenoble Rhone-Alpes France","old mapped address",324,426,0," "," "," "," "," "," ","FR714"
128,"WOS:000314259500014",2013,"Univ Melbourne, Sch Phys, Melbourne, Vic 3010, Australia","Melbourne","Vic","Australia",-37.8242988586,144.977996826,"Melbourne VIC Australia","Melbourne VIC Australia","old mapped address",551,557,0," "," "," "," "," ","Melbourne VIC Australia"," "
129,"WOS:000289050800005",2011,"Chungnam Natl Univ, Coll Med, Dept Psychiat, Taejon, South Korea","Taejon"," ","South Korea",36.3344917297,127.437309265,"Daejeon South Korea","Daejeon Daejeon South Korea","old mapped address",383,561,0," "," "," "," "," ","Daejeon South Korea"," "
130,"WOS:000322171400005",2013,"Chinese Acad Med Sci, Blood Dis Hosp, Tianjin 300020, Peoples R China","Tianjin"," ","Peoples R China",39.1449394226,117.200569153,"Tianjin China","Tianjin Tianjin China","old mapped address",681,684,0,," "," "," "," ","Tianjin China"," "
131,"WOS:000274756100199",2010,"Univ Alberta, Stollery Childrens Hosp, Edmonton, AB, Canada","Edmonton","AB","Canada",53.4538002014,-113.509002685," Edmonton AB Canada","Edmonton AB Canada","old mapped address",533,623,0," "," "," "," "," "," Edmonton, AB, Canada"," "
132,"WOS:000322087600055",2013,"Albert Einstein Coll Med, Dept Epidemiol & Populat Hlth, Bronx, NY 10467 USA","Bronx","NY","USA",40.8372917175,-73.8860092163,35620,"Bronx NY United States","old mapped address",646,649,0,"New York",974101,"Bronx County",35620,"New York-Newark-Jersey City, NY-NJ-PA Metro Area"," "," "
133,"WOS:000285051500031",2010,"Univ Aix Marseille 2, Ctr Phys Particules Marseille, CNRS, IN2P3, F-13288 Marseille, France","Marseille"," ","France",43.2933616638,5.3712902069,"FR824","Marseille PACA France","old mapped address",262,478,0," "," "," "," "," "," ","FR824"
134,"WOS:000263442701458",2009,"Syracuse Univ, Syracuse, NY 13244 USA","Syracuse","NY","USA",43.0499916077,-76.1473922729,45060,"Syracuse NY United States","old mapped address",334,388,0,"New York",974132,"Onondaga County",45060,"Syracuse, NY Metro Area"," "," "
135,"WOS:000275627400015",2010,"Environm Canada, Canadian Wildlife Serv, Natl Wildlife Res Ctr, Ottawa, ON K1A 0H3, Canada","Ottawa","ON","Canada",45.3891983032,-75.68800354,"Ottawa ON Canada","Ottawa ON Canada","old mapped address",439,460,0," "," "," "," "," ","Ottawa Canada"," "
136,"WOS:000258190800011",2008,"WESTAT Corp, Rockville, MD 20850 USA","Rockville","MD","USA",39.0816612244,-77.1512374878,47900,"Rockville MD United States","old mapped address",466,466,0,"Maryland",1712500,"Montgomery County",47900,"Washington-Arlington-Alexandria, DC-VA-MD-WV Metro Area"," "," "
137,"WOS:000324734400026",2013,"Osservatorio Astron Padova INAF OAPD, I-35122 Padua, Italy","Padua"," ","Italy",45.4085998535,11.9260997772,"ITH36","Padua Ven. Italy","old manual",289,494,0," "," "," "," "," "," ","ITH36"
138,"WOS:000299846000006",2012,"RIKEN, Adv Sci Inst, Wako, Saitama 3510198, Japan","Wako","Saitama","Japan",35.7893981934,139.623001099,"Saitama Japan","Wako Saitama Japan","old mapped address",691,693,0," "," "," "," "," ","Saitama"," "
139,"WOS:000305428600008",2012,"Technion Israel Inst Technol, Fac Biomed Engn, IL-32000 Technion, Israel","Technion"," ","Israel",32.7775001526,35.0216674805,"Haifa Israel"," Haifa Israel","old manual",605,613,0," "," "," "," "," ","Haifa Israel"," "
140,"WOS:000252158200005",2008,"Technion Israel Inst Technol, Ruth & Bruce Rappaport Fac Med, Bnai Zion Med Ctr, Ischemia Shock Res Lab,Dept Pediat Surg, IL-31048 Haifa, Israel","Haifa"," ","Israel",32.7775001526,35.0216674805,"Haifa Israel","Haifa Haifa Israel","old mapped address",603,611,0," "," "," "," "," ","Haifa Israel"," "
141,"WOS:000262289900010",2008,"Indiana Univ Purdue Univ, Coll Arts & Sci, Ft Wayne, IN 46805 USA","Ft Wayne","IN","USA",41.0802612305,-85.1383132935,23060,"Fort Wayne IN United States","old mapped address",624,624,0,"Indiana",450402,"Allen County",23060,"Fort Wayne, IN Metro Area"," "," "
142,"WOS:000271849900005",2009,"Univ Manchester, Manchester, Lancs, England","Manchester","Lancs","England",52.5988769531,-1.4668813944,"UKF22"," England United Kingdom","old mapped address",310,584,0," "," "," "," "," "," ","UKF22"
143,"WOS:000315591500013",2013,"Med Univ S Carolina, Dept Cardiol, Charleston, SC 29425 USA","Charleston","SC","USA",32.7811508179,-79.931602478,16700,"Charleston SC United States","old mapped address",572,574,0,"South Carolina",1252740,"Charleston County",16700,"Charleston-North Charleston, SC Metro Area"," "," "
144,"WOS:000328820500001",2013,"Louisiana State Univ Hlth Sci Ctr New Orleans, New Orleans, LA USA","New Orleans","LA","USA",29.9536991119,-90.0777511597,35380,"New Orleans LA United States","old mapped address",536,536,0,"Louisiana",558113,"Orleans Parish",35380,"New Orleans-Metairie, LA Metro Area"," "," "
145,"WOS:000305981400020",2012,"Jianghan Univ, Coll Life Sci, Dept Biotechnol, Wuhan 430056, Peoples R China","Wuhan"," ","Peoples R China",30.5534954071,114.253257752,"Wuhan Hubei China","Wuhan Hubei China","old mapped address",565,581,0," "," "," "," "," ","Wuhan Hubei China"," "
146,"WOS:000294941400016",2011,"Univ Colorado Denver, Sch Med, Dept Pharmacol, Aurora, CO 80045 USA","Aurora","CO","USA",39.7093200684,-104.814582825,19740,"Aurora CO United States","old mapped address",533,535,0,"Colorado",198118,"Arapahoe County",19740,"Denver-Aurora-Lakewood, CO Metro Area"," "," "
147,"WOS:000310000200002",2012,"Kyungpook Natl Univ, Dept Math, Taegu 702701, South Korea","Taegu"," ","South Korea",35.854019165,128.610336304,"Daegu South Korea","Daegu Daegu South Korea","old mapped address",221,430,0," "," "," "," "," ","Daegu South Korea"," "
149,"WOS:000252222400021",2008,"Inst Nacl Enfermedades Resp, Mexico City, DF, Mexico","Mexico City","DF","Mexico",19.4319496155,-99.1331329346,"Mexico City Mexico","Mexico City DF Mexico","old mapped address",424,624,0," "," "," "," "," ","Mexico City Mexico"," "
148,"WOS:000316387100007",2013,"Univ Georgia, Dept Advertising & Publ Relat, Grady Coll Journalism & Mass Commun, Athens, GA 30602 USA","Athens","GA","USA",33.9581298828,-83.3732528687,12020,"Athens GA United States","old mapped address",610,615,0,"Georgia",1672699,"Clarke County",12020,"Athens-Clarke County, GA Metro Area"," "," "
150,"WOS:000317562100108",2013,"Univ Missouri, Interdisciplinary Neurosci Program, Columbia, MO USA","Columbia","MO","USA",38.9522094727,-92.3341522217,17860,"Columbia MO United States","old mapped address",586,589,0,"Missouri",758464,"Boone County",17860,"Columbia, MO Metro Area"," "," "
151,"WOS:000260132500006",2008,"NASA Goddard JWST, Greenbelt, MD 20771 USA","Greenbelt","MD","USA",39.0006713867,-76.8803100586,47900,"Greenbelt MD United States","old mapped address",579,615,0,"Maryland",1714670,"Prince George's County",47900,"Washington-Arlington-Alexandria, DC-VA-MD-WV Metro Area"," "," "
152,"WOS:000324172700004",2013,"Univ Calif Santa Barbara, Dept Phys, Santa Barbara, CA 93106 USA","Santa Barbara","CA","USA",34.419380188,-119.699050903,42200,"Santa Barbara CA United States","old mapped address",544,602,0,"California",277306,"Santa Barbara County",42200,"Santa Maria-Santa Barbara, CA Metro Area"," "," "
153,"WOS:000303097700009",2012,"Wake Forest Univ, Bowman Gray Sch Med, Dept Radiat Oncol, Winston Salem, NC 27157 USA","Winston Salem","NC","USA",36.0996208191,-80.2410888672,49180,"Winston-Salem NC United States","old mapped address",441,445,0,"North Carolina",1008552,"Forsyth County",49180,"Winston-Salem, NC Metro Area"," "," "
154,"WOS:000298131100002",2011,"Univ Copenhagen, Niels Bohr Inst, Copenhagen, Denmark","Copenhagen"," ","Denmark",55.7132606506,12.5349302292,"Kopenhagen","Copenhagen Capital Region Denmark","old mapped address",435,448,0," "," "," "," "," "," ","Kopenhagen"
155,"WOS:000257564800019",2008,"Erasmus MC, Dept Med Informat, NL-3015 GE Rotterdam, Netherlands","Rotterdam"," ","Netherlands",51.9156990051,4.4575099945,"NL339","Rotterdam South Holland Netherlands","old mapped address",401,431,0," "," "," "," "," "," ","NL339"
156,"WOS:000323771900016",2013,"Univ Toledo, Dept Med Microbiol & Immunol, Toledo, OH 43606 USA","Toledo","OH","USA",41.6538085938,-83.5362625122,45780,"Toledo OH United States","old mapped address",627,627,0,"Ohio",1074060,"Lucas County",45780,"Toledo, OH Metro Area"," "," "
157,"WOS:000313124000021",2012,"Univ S Carolina, Dept Phys & Astron, Columbia, SC 29208 USA","Columbia","SC","USA",33.9988212585,-81.0453720093,17900,"Columbia SC United States","old mapped address",429,521,0,"South Carolina",1249299,"Richland County",17900,"Columbia, SC Metro Area"," "," "
158,"WOS:000300631800020",2012,"Univ Edinburgh, SUPA Sch Phys & Astron, Edinburgh, Midlothian, Scotland","Edinburgh","Midlothian","Scotland",55.9541511536,-3.2027699947,"UKM25","Edinburgh Scotland United Kingdom","old mapped address",391,425,0," "," "," "," "," "," ","UKM25"
159,"WOS:000295357000016",2011,"Univ Massachusetts, Sch Med, Dept Med, Worcester, MA 01655 USA","Worcester","MA","USA",42.2634086609,-71.802192688,49340,"Worcester MA United States","old mapped address",501,504,0,"Massachusetts",606940,"Worcester County",49340,"Worcester, MA-CT Metro Area"," "," "
160,"WOS:000328545500014",2013,"Mayo Clin, Scottsdale, AZ USA","Scottsdale","AZ","USA",33.4939994812,-111.920692444,38060,"Scottsdale AZ United States","old mapped address",554,555,0,"Arizona",37026,"Maricopa County",38060,"Phoenix-Mesa-Scottsdale, AZ Metro Area"," "," "
161,"WOS:000296516500026",2011,"Minist Educ China, Guangzhou 510260, Guangdong, Peoples R China","Guangzhou","Guangdong","Peoples R China",23.1133708954,113.255233765,"Guangzhou Guangdong China","Guangzhou Guangdong China","old mapped address",581,581,0,," "," "," "," ","Guangzhou Guangdong China"," "
162,"WOS:000291698400004",2011,"Univ Munich, Fak Phys, DE-85748 Garching, Germany","Garching"," ","Germany",48.2526016235,11.655500412,"DE21H","Garching BY Germany","old manual",495,534,0," "," "," "," "," "," ","DE21H"
163,"WOS:000253490300016",2008,"Ulleval Hosp, Oslo, Norway","Oslo"," ","Norway",59.9122886658,10.75,"NO011","Oslo Oslo Norway","old mapped address",424,427,0," "," "," "," "," "," ","NO011"
164,"WOS:000281721800004",2010,"Univ Nebraska, Dept Biochem, Lincoln, NE 68588 USA","Lincoln","NE","USA",40.813621521,-96.7077407837,30700,"Lincoln NE United States","old mapped address",408,601,0,"Nebraska",835876,"Lancaster County",30700,"Lincoln, NE Metro Area"," "," "
165,"WOS:000314137400019",2013,"Stanford Univ, Dept Ophthalmol, Palo Alto, CA 94304 USA","Palo Alto","CA","USA",37.4446601868,-122.16078949,41940,"Palo Alto CA United States","old mapped address",474,480,0,"California",277307,"Santa Clara County",41940,"San Jose-Sunnyvale-Santa Clara, CA Metro Area"," "," "
166,"WOS:000284150900027",2010,"Univ Calgary, Dept Phys & Astron, Calgary, AB T2N 1N4, Canada","Calgary","AB","Canada",51.0452194214,-114.063018799,"Calgary AB Canada","Calgary AB Canada","old mapped address",477,479,0," "," "," "," "," ","Calgary AB Canada"," "
167,"WOS:000309346800001",2012,"Univ Groningen, KVI Univ Groningen, NL-9747 AA Groningen, Netherlands","Groningen"," ","Netherlands",53.2486000061,6.5821900368,"NL113","Groningen Groningen Netherlands","old mapped address",348,400,0," "," "," "," "," "," ","NL113"
168,"WOS:000275812300002",2009,"DermResearch PLLC, Louisville, KY USA","Louisville","KY","USA",38.2548599243,-85.7664031982,31140,"Louisville KY United States","old mapped address",514,514,0,"Kentucky",516902,"Jefferson County",31140,"Louisville/Jefferson County, KY-IN Metro Area"," "," "
169,"WOS:000319392600008",2013,"Bridges Future, Flint, MI USA","Flint","MI","USA",43.0114402771,-83.6867904663,22420,"Flint MI United States","old mapped address",508,508,0,"Michigan",1622967,"Genesee County",22420,"Flint, MI Metro Area"," "," "
170,"WOS:000284150900032",2010,"Radboud Univ Nijmegen, Dept Astrophys IMAPP, NL-6500 GL Nijmegen, Netherlands","Nijmegen"," ","Netherlands",51.8321990967,5.8039197922,"NL226","Nijmegen Gelderland Netherlands","old mapped address",343,465,0," "," "," "," "," "," ","NL226"
171,"WOS:000299757000005",2012,"Univ Freiburg, Fak Math & Phys, D-79106 Freiburg, Germany","Freiburg"," ","Germany",47.9985313416,7.8496499062,"DE131","Freiburg BW Germany","old manual",199,294,0," "," "," "," "," "," ","DE131"
172,"WOS:000284150900026",2010,"Polish Acad Sci, Inst Phys Chem, Warsaw, Poland","Warsaw"," ","Poland",52.2287483215,21.0062503815,"warsaw","Warsaw MA Poland","old mapped address",384,421,0," "," "," "," "," "," ","warsaw"
173,"WOS:000313422000004",2013,"Univ Hawaii, Honolulu, HI 96822 USA","Honolulu","HI","USA",21.3048496246,-157.857757568,46520,"Honolulu HI United States","old mapped address",453,475,0,"Hawaii",365281,"Honolulu County",46520,"Urban Honolulu, HI Metro Area"," "," "
174,"WOS:000323013400050",2013,"US EPA, Natl Ctr Computat Toxicol, Res Triangle Pk, NC 27711 USA","Res Triangle Pk","NC","USA",35.5393447876,-79.1854171753,41820," NC United States","old mapped address",449,450,0,"North Carolina",1008567,"Lee County",41820,"Sanford, NC Micro Area"," "," "
175,"WOS:000312026700004",2012,"Christopher Newport Univ, Newport News, VA 23606 USA","Newport News","VA","USA",37.0828781128,-76.4802322388,47260,"Newport News VA United States","old mapped address",173,394,0,"Virginia",1498555,"Newport News city",47260,"Virginia Beach-Norfolk-Newport News, VA-NC Metro Area"," "," "
176,"WOS:000309304600013",2012,"Chonnam Natl Univ, Sch Med, Res Inst Med Sci, Dept Biomed Sci, Kwangju, South Korea","Kwangju"," ","South Korea",35.1529388428,126.905151367,"Gwangju South Korea","Gwangju Gwangju South Korea","old mapped address",175,348,0," "," "," "," "," ","Gwangju South Korea"," "
177,"WOS:000297499900004",2011,"NIST, Gaithersburg, MD 20899 USA","Gaithersburg","MD","USA",39.1398582458,-77.1938171387,47900,"Gaithersburg MD United States","old mapped address",534,535,0,"Maryland",1712500,"Montgomery County",47900,"Washington-Arlington-Alexandria, DC-VA-MD-WV Metro Area"," "," "
178,"WOS:000255962500016",2008,"Univ Kansas, Lawrence, KS 66045 USA","Lawrence","KS","USA",38.9730606079,-95.2365264893,29940,"Lawrence KS United States","old mapped address",344,519,0,"Kansas",484992,"Douglas County",29940,"Lawrence, KS Metro Area"," "," "
179,"WOS:000304390900155",2012,"Hanford Observ, LIGO, Richland, WA 99352 USA","Richland","WA","USA",46.2739105225,-119.273719788,28420,"Richland WA United States","old mapped address",387,389,0,"Washington",1513302,"Benton County",28420,"Kennewick-Richland, WA Metro Area"," "," "
180,"WOS:000284726800002",2011,"Univ Toulouse 3, IMT, CNRS, UMR 5219, F-31062 Toulouse, France","Toulouse"," ","France",43.6057281494,1.4486900568,"FR623","Toulouse Mid-Pyrenees France","old manual",353,389,0," "," "," "," "," "," ","FR623"
181,"WOS:000271849900005",2009,"Univ Sci & Technol China, Hefei 230026, Peoples R China","Hefei"," ","Peoples R China",31.8700294495,117.27456665,"Hefei Anhui China","Hefei Anhui China","old mapped address",176,275,0," "," "," "," "," ","Hefei Anhui China"," "
183,"WOS:000307680100005",2012,"Univ Calif Santa Cruz, Santa Cruz Inst Particle Phys, Santa Cruz, CA 95064 USA","Santa Cruz","CA","USA",36.9740180969,-122.030952454,42100,"Santa Cruz CA United States","old mapped address",447,458,0,"California",277308,"Santa Cruz County",42100,"Santa Cruz-Watsonville, CA Metro Area"," "," "
182,"WOS:000330596100089",2013,"Louisiana State Univ, Pennington Biomed Rsch Cntr, Baton Rouge, LA 70803 USA","Baton Rouge","LA","USA",30.4433403015,-91.1869888306,12940,"Baton Rouge LA United States","old mapped address",364,373,0,"Louisiana",558530,"East Baton Rouge Parish",12940,"Baton Rouge, LA Metro Area"," "," "
184,"WOS:000264026200002",2009,"Hannover Med Sch, Dept Pediat Surg, D-3000 Hannover, Germany","Hannover"," ","Germany",52.3722686768,9.7381496429,"DE929","Hannover NI Germany","old manual",168,173,0," "," "," "," "," "," ","DE929"
185,"WOS:000330126000020",2013,"Next Level Solut, Raleigh, NC USA","Raleigh","NC","USA",35.7855110168,-78.6426696777,39580,"Raleigh NC United States","old mapped address",423,426,0,"North Carolina",1008592,"Wake County",39580,"Raleigh, NC Metro Area"," "," "
186,"WOS:000208710800003",2011,"Leiden Univ, Med Ctr, Dept Clin Epidemiol, Leiden, Netherlands","Leiden"," ","Netherlands",52.163898468,4.4876499176,"NL337","Leiden South Holland Netherlands","old mapped address",372,391,0," "," "," "," "," "," ","NL337"
187,"WOS:000260368900003",2009,"FedEx World Headquarters, Memphis, TN 38125 USA","Memphis","TN","USA",35.1497612,-90.0492477417,32820,"Memphis TN United States","old mapped address",443,443,0,"Tennessee",1639790,"Shelby County",32820,"Memphis, TN-MS-AR Metro Area"," "," "
188,"WOS:000282426400005",2010,"Lawrence Livermore Natl Lab, Livermore, CA 94550 USA","Livermore","CA","USA",37.675491333,-121.758216858,41860,"Livermore CA United States","old mapped address",457,459,0,"California",1675839,"Alameda County",41860,"San Francisco-Oakland-Hayward, CA Metro Area"," "," "
189,"WOS:000270264400005",2009,"Univ Nebraska Med Ctr, Eppley Canc Ctr, Nebraska Med Ctr, Omaha, NE USA","Omaha","NE","USA",41.2606887817,-95.9405899048,36540,"Omaha NE United States","old mapped address",333,343,0,"Nebraska",835849,"Douglas County",36540,"Omaha-Council Bluffs, NE-IA Metro Area"," "," "
191,"WOS:000263911900015",2009,"Univ Calif Riverside, Riverside, CA 92521 USA","Riverside","CA","USA",33.981628418,-117.373878479,40140,"Riverside CA United States","old mapped address",326,448,0,"California",277297,"Riverside County",40140,"Riverside-San Bernardino-Ontario, CA Metro Area"," "," "
190,"WOS:000314441900173",2013,"Childrens Mercy Hosp, Kansas City, MO 64108 USA","Kansas City","MO","USA",39.1029510498,-94.5830764771,28140,"Kansas City MO United States","old mapped address",401,402,0,"Missouri",758502,"Jackson County",28140,"Kansas City, MO-KS Metro Area"," "," "
192,"WOS:000288190200002",2011,"McMaster Univ, Dept Phys Astron, Haminton, ON L8S 4M1, Canada","Haminton","ON","Canada",43.2354011536,-79.8880004883,"Hamilton ON Canada","Hamilton ON Canada","old mapped address",406,418,0," "," "," "," "," ","Hamilton ON Canada"," "
193,"WOS:000273259200013",2010,"Donauspital, Sozialmed Zentrum Ost, Dept Neurosurg, Vienna, Austria","Vienna"," ","Austria",48.2084274292,16.3778209686,"AT130"," Vienna Austria","old mapped address",404,410,0," "," "," "," "," "," ","AT130"
196,"WOS:000270384900012",2009,"Sungkyunkwan Univ, Suwon 440746, South Korea","Suwon"," ","South Korea",37.2585906982,127.015983582,"Seoul South Korea","Suwon Gyeonggi South Korea","old mapped address",94,284,0," "," "," "," "," ","Seoul South Korea"," "
195,"WOS:000286982200001",2011,"Old Dominion Univ, Norfolk, VA 23529 USA","Norfolk","VA","USA",36.8468208313,-76.2850570679,47260,"Norfolk VA United States","old mapped address",216,348,0,"Virginia",1498557,"Norfolk city",47260,"Virginia Beach-Norfolk-Newport News, VA-NC Metro Area"," "," "
194,"WOS:000308444400022",2012,"McMaster Univ, Dept Cardiol, Hamilton, ON, Canada","Hamilton","ON","Canada",43.2354011536,-79.8880004883,"Hamilton ON Canada","Hamilton ON Canada","old mapped address",402,414,0," "," "," "," "," ","Hamilton ON Canada"," "
197,"WOS:000265479300012",2009,"Ctr Brasileiro Pesquisas Fis, LAFEX, Rio De Janeiro, Brazil","Rio De Janeiro"," ","Brazil",-22.9121608734,-43.1750106812,"Rio De Janeiro Brazil","Rio de Janeiro RJ Brazil","old mapped address",218,447,0," "," "," "," "," ","Rio De Janeiro, Brazil"," "
198,"WOS:000300134500003",2012,"Univ Massachusetts, Dept Phys, Amherst, MA 01003 USA","Amherst","MA","USA",42.3752593994,-72.518951416,44140,"Amherst MA United States","old mapped address",358,372,0,"Massachusetts",606934,"Hampshire County",44140,"Springfield, MA Metro Area"," "," "
199,"WOS:000312153700001",2012,"Moi Univ, Dept Religious Studies, Eldoret 30100, Kenya","Eldoret"," ","Kenya",0.5066699982,35.2731704712,"Eldoret Rift Valley Kenya","Eldoret Rift Valley Kenya","old mapped address",442,442,0," "," "," "," "," ","Eldoret Kenya"," "
200,"WOS:000294551400016",2011,"Univ Florida, Dept Med, Jacksonville, FL USA","Jacksonville","FL","USA",30.3314704895,-81.6562194824,27260,"Jacksonville FL United States","old mapped address",364,370,0,"Florida",293656,"Duval County",27260,"Jacksonville, FL Metro Area"," "," "
201,"WOS:000314259500014",2013,"Univ Birmingham, Sch Phys & Astron, Birmingham, W Midlands, England","Birmingham","W Midlands","England",52.4786682129,-1.9084800482,"UKG31","Birmingham England United Kingdom","old manual",186,203,0," "," "," "," "," "," ","UKG31"
202,"WOS:000306142800027",2012,"Iowa State Univ, Dept Elect & Comp Engn, Ames, IA 50011 USA","Ames","IA","USA",42.0253410339,-93.6202011108,11180,"Ames IA United States","old mapped address",374,411,0,"Iowa",465273,"Story County",11180,"Ames, IA Metro Area"," "," "
203,"WOS:000289741000023",2011,"Katholieke Univ Leuven, Dept Int & European Law, Louvain, Belgium","Louvain"," ","Belgium",50.8863983154,4.7080302238,"BE242","Louvain Flemish Region Belgium","old mapped address",390,392,0," "," "," "," "," "," ","BE242"
204,"WOS:000262895800040",2009,"Inst High Energy Phys, Protvino, Russia","Protvino"," ","Russia",54.8801002502,37.2140007019,"Moscow Russia","Protvino Moscow Oblast Russia","old manual",37,309,0," "," "," "," "," ","Moscow Russia"," "
205,"WOS:000300499500076",2012,"PULSE Inst, Menlo Pk, CA 94025 USA","Menlo Pk","CA","USA",37.4553184509,-122.17855835,41860,"Menlo Park CA United States","old mapped address",334,352,0,"California",277305,"San Mateo County",41860,"San Francisco-Oakland-Hayward, CA Metro Area"," "," "
206,"WOS:000309707300016",2012,"CEA Saclay, DSM, IRFU, F-91191 Gif Sur Yvette, France","Gif Sur Yvette"," ","France",48.6883010864,2.1186099052,"PARIS","Gif-sur-Yvette IdF France","old mapped address",168,234,0," "," "," "," "," "," ","PARIS"
207,"WOS:000292256400006",2011,"Rutgers State Univ, Piscataway, NJ 08855 USA","Piscataway","NJ","USA",40.5392494202,-74.4714889526,35620,"Piscataway Township NJ United States","old mapped address",293,406,0,"New Jersey",882230,"Middlesex County",35620,"New York-Newark-Jersey City, NY-NJ-PA Metro Area"," "," "
208,"WOS:000280902000009",2010,"Univ Arkansas Med Sci, Dept Surg, Coll Med, Little Rock, AR 72205 USA","Little Rock","AR","USA",34.7486495972,-92.2744903564,30780,"Little Rock AR United States","old mapped address",431,431,0,"Arkansas",69177,"Pulaski County",30780,"Little Rock-North Little Rock-Conway, AR Metro Area"," "," "
209,"WOS:000313160300006",2013,"Osaka Univ, Grad Sch Sci, Osaka, Japan","Osaka"," ","Japan",34.677520752,135.512908936,"Osaka Japan","Osaka Osaka Japan","old manual",239,317,0," "," "," "," "," ","Osaka"," "
210,"WOS:000324073000001",2013,"Ist Nazl Fis Nucl, Lab Nazl Frascati, I-00044 Frascati, Italy","Frascati"," ","Italy",41.807800293,12.6789999008,"ITI43","Frascati Laz. Italy","old manual",59,223,0," "," "," "," "," "," ","ITI43"
211,"WOS:000329838100002",2013,"Univ Tennessee, Knoxville, TN 37996 USA","Knoxville","TN","USA",35.9604911804,-83.9209136963,28940,"Knoxville TN United States","old mapped address",365,370,0,"Tennessee",1639761,"Knox County",28940,"Knoxville, TN Metro Area"," "," "
212,"WOS:000299198000016",2011,"Russian Acad Sci, Inst Zool, St Petersburg 199034, Russia","St Petersburg"," ","Russia",59.9288749695,30.2215461731,"St Petersburg Russia"," St. Petersburg City Russia","old mapped address",215,377,0," "," "," "," "," ","St Petersburg Russia"," "
213,"WOS:000300122500026",2012,"Univ Tennessee, Oak Ridge Natl Lab, Dept Biochem, Ctr Biophys Mol, Oak Ridge, TN USA","Oak Ridge","TN","USA",36.0145301819,-84.2565383911,28940,"Oak Ridge TN United States","old mapped address",425,428,0,"Tennessee",1639722,"Anderson County",28940,"Knoxville, TN Metro Area"," "," "
214,"WOS:000295575400043",2011,"Swiss Inst Bioinformat, CH-1015 Lausanne, Switzerland","Lausanne"," ","Switzerland",46.528301239,6.6307501793,"CH011","Lausanne VD Switzerland","old mapped address",367,375,0," "," "," "," "," "," ","CH011"
215,"WOS:000318290600006",2013,"Johannes Gutenberg Univ Mainz, Inst Phys, Mainz, Germany","Mainz"," ","Germany",50.0006103516,8.2722797394,"DEB35","Mainz RP Germany","old manual",164,258,0," "," "," "," "," "," ","DEB35"
217,"WOS:000267718900005",2009,"Univ Oklahoma, Michael F Price Coll Business, Dept Management, Norman, OK 73019 USA","Norman","OK","USA",35.2207603455,-97.4466018677,36420,"Norman OK United States","old mapped address",233,406,0,"Oklahoma",1101801,"Cleveland County",36420,"Oklahoma City, OK Metro Area"," "," "
216,"WOS:000261390800075",2008,"INFM, Lab Nazl TASC, I-34012 Trieste, Italy","Trieste"," ","Italy",45.6417007446,13.8114004135,"ITH44","Trieste Fr.V.G. Italy","old manual",219,321,0," "," "," "," "," "," ","ITH44"
218,"WOS:000299293600003",2012,"Univ Naples Federico II, Dipartimento Sci Fis, Naples, Italy","Naples"," ","Italy",40.8476982117,14.2625999451,"ITF33","Naples Camp. Italy","old manual",247,267,0," "," "," "," "," "," ","ITF33"
219,"WOS:000330367200041",2013,"Altrecht Acad Anxiety Ctr, Utrecht, Netherlands","Utrecht"," ","Netherlands",52.0858001709,5.1308398247,"NL310","Utrecht Utrecht Netherlands","old mapped address",346,364,0," "," "," "," "," "," ","NL310"
220,"WOS:000295421300015",2011,"Univ Calif Davis, Sacramento, CA 95817 USA","Sacramento","CA","USA",38.4490699768,-121.343788147,40900,"Sacramento Co. CA United States","old mapped address",341,345,0,"California",277298,"Sacramento County",40900,"Sacramento--Roseville--Arden-Arcade, CA Metro Area"," "," "
221,"WOS:000293295900015",2011,"Univ Gottingen, Inst Phys 2, Gottingen, Germany","Gottingen"," ","Germany",51.5598983765,9.9319200516,"DE915","GÃ¶ttingen NI Germany","old manual",236,319,0," "," "," "," "," "," ","DE915"
222,"WOS:000304018500006",2010,"Nanjing Univ, Dept Phys, Nanjing 210093, Jiangsu, Peoples R China","Nanjing","Jiangsu","Peoples R China",32.0497817993,118.765983582,"Nanjing Jiangsu China","Nanjing Jiangsu China","old mapped address",378,378,0," "," "," "," "," ","Nanjing Jiangsu China"," "
223,"WOS:000292719700004",2011,"Univ Genoa, Ist Nazl Fis Nucl, Genoa, Italy","Genoa"," ","Italy",44.4025001526,8.9312896729,"ITC33","Genoa Lig. Italy","old manual",158,207,0," "," "," "," "," "," ","ITC33"
224,"WOS:000282039300030",2010,"Dartmouth Med Sch, Computat Genet Lab, Dept Genet, Lebanon, NH 03756 USA","Lebanon","NH","USA",43.6448097229,-72.2539520264,17200,"Lebanon NH United States","old mapped address",351,351,0,"New Hampshire",873178,"Grafton County",17200,"Claremont-Lebanon, NH-VT Micro Area"," "," "
225,"WOS:000266411700015",2009,"ISI Fdn Inst Sci Interchange, Turin, Italy","Turin"," ","Italy",45.0754013062,7.6462001801,"ITC11","Turin Piem. Italy","old manual",294,299,0," "," "," "," "," "," ","ITC11"
226,"WOS:000305825800062",2012,"Dartmouth Coll, Hitchcock Med Ctr, Dartmouth Med Sch, Dept Med, Hanover, NH 03756 USA","Hanover","NH","USA",43.7004585266,-72.2894973755,17200,"Hanover NH United States","old mapped address",383,383,0,"New Hampshire",873178,"Grafton County",17200,"Claremont-Lebanon, NH-VT Micro Area"," "," "
227,"WOS:000256705600055",2008,"Rensselaer Polytech Inst, Dept Earth & Environm Sci, Troy, NY 12180 USA","Troy","NY","USA",42.7344894409,-73.6880874634,10580,"Troy NY United States","old mapped address",238,298,0,"New York",974140,"Rensselaer County",10580,"Albany-Schenectady-Troy, NY Metro Area"," "," "
228,"WOS:000311284200003",2012,"Univ Bern, Albert Einstein Ctr Fundamental Phys, Bern, Switzerland","Bern"," ","Switzerland",46.9416007996,7.4088602066,"CH021","Bern BE Switzerland","old mapped address",223,226,0," "," "," "," "," "," ","CH021"
230,"WOS:000268809300008",2009,"Uppsala Univ, Uppsala, Sweden","Uppsala"," ","Sweden",59.7573013306,17.3946990967,"SE121","Uppsala Uppsala County Sweden","old mapped address",238,310,0," "," "," "," "," "," ","SE121"
229,"WOS:000317997300007",2013,"Univ Buenos Aires, Fac Phys, Lab Integrat Neurosci, RA-1053 Buenos Aires, DF, Argentina","Buenos Aires","DF","Argentina",-34.6723213196,-58.4711303711,"Buenos Aires Argentina","Buenos Aires City Buenos Aires Autonomous City Argentina","old manual",327,387,0," "," "," "," "," ","Buenos Aires, Argentina"," "
231,"WOS:000324224300006",2013,"Virginia Tech, Program Real Estate, Blacksburg, VA 24061 USA","Blacksburg","VA","USA",37.2262611389,-80.4105834961,13980,"Blacksburg VA United States","old mapped address",355,365,0,"Virginia",1674630,"Montgomery County",13980,"Blacksburg-Christiansburg-Radford, VA Metro Area"," "," "
232,"WOS:000308519000013",2012,"Karlsruhe Inst Technol, Inst Expt Kernphys, D-76131 Karlsruhe, Germany","Karlsruhe"," ","Germany",49.0054016113,8.3868703842,"DE122","Karlsruhe BW Germany","old manual",98,295,0," "," "," "," "," "," ","DE122"
233,"WOS:000299772000425",2011,"Hosp Edouard Herriot, Lyon, France","Lyon"," ","France",45.7593917847,4.828979969,"FR716","Lyon Rhone-Alpes France","old mapped address",255,375,0," "," "," "," "," "," ","FR716"
234,"WOS:000310064500012",2012,"Chinese Univ Hong Kong, Hong Kong, Hong Kong, Peoples R China","Hong Kong","Hong Kong","Peoples R China",22.283000946,114.158996582,"Hong Kong","Hong Kong Hong Kong Hong Kong SAR","old mapped address",335,335,0," "," "," "," "," ","Hong Kong"," "
235,"WOS:000314333000010",2013,"Queensland Inst Med Res, Brisbane, Qld 4006, Australia","Brisbane","Qld","Australia",-27.468460083,153.023422241,"Brisbane Australia","Brisbane QLD Australia","old mapped address",291,303,0," "," "," "," "," ","Brisbane, Australia"," "
237,"WOS:000297490400002",2011,"Univ Liverpool, Oliver Lodge Lab, Liverpool L69 3BX, Merseyside, England","Liverpool","Merseyside","England",53.4070014954,-2.9914999008,"UKD72","Liverpool City Centre England United Kingdom","old mapped address",141,209,0," "," "," "," "," "," ","UKD72"
236,"WOS:000288455300005",2011,"Colorado State Univ, Dept Soil & Crop Sci, Soil Water & Plant Testing Lab, Ft Collins, CO 80523 USA","Ft Collins","CO","USA",40.5814704895,-105.076263428,22660,"Fort Collins CO United States","old mapped address",366,370,0,"Colorado",198150,"Larimer County",22660,"Fort Collins, CO Metro Area"," "," "
238,"WOS:000320482200017",2013,"Univ Connecticut, Dept Civil & Environm Engn, Storrs, CT 06269 USA","Storrs","CT","USA",41.8084793091,-72.2499389648,25540,"Storrs CT United States","old mapped address",295,335,0,"Connecticut",212668,"Tolland County",25540,"Hartford-West Hartford-East Hartford, CT Metro Area"," "," "
239,"WOS:000302634000012",2012,"Med Ctr, US Dept Vet Affairs, Oklahoma City, OK 73104 USA","Oklahoma City","OK","USA",35.4720306396,-97.5210723877,36420,"Oklahoma City OK United States","old mapped address",307,311,0,"Oklahoma",1101842,"Oklahoma County",36420,"Oklahoma City, OK Metro Area"," "," "
240,"WOS:000291308400001",2011,"Polytech Univ Marche Reg Ancona, Sch Med, Sect Pathol Anat, Ancona, Italy","Ancona"," ","Italy",43.6170005798,13.5123996735,"ITI32","Ancona Marc. Italy","old manual",372,372,0," "," "," "," "," "," ","ITI32"
241,"WOS:000264762400011",2009,"Univ Athens, GR-15771 Athens, Greece","Athens"," ","Greece",37.9928016663,23.7695007324,"EL303","Athens Attica Greece","old mapped address",187,271,0," "," "," "," "," "," ","EL303"
243,"WOS:000324921700003",2013,"Zhejiang Univ, Sch Med, Dept Med Microbiol & Parasitol, Hangzhou 310058, Zhejiang, Peoples R China","Hangzhou","Zhejiang","Peoples R China",30.2526245117,120.16507721,"Hangzhou Zhejiang China","Hangzhou Zhejiang China","old mapped address",362,362,0," "," "," "," "," ","Hangzhou Zhejiang China"," "
242,"WOS:000307685800018",2012,"Arizona State Univ, Div Math & Nat Sci, Glendale, AZ 85306 USA","Glendale","AZ","USA",33.538608551,-112.186271667,38060,"Glendale AZ United States","old mapped address",369,369,0,"Arizona",37026,"Maricopa County",38060,"Phoenix-Mesa-Scottsdale, AZ Metro Area"," "," "
244,"WOS:000308452600003",2012,"Simon Fraser Univ, Dept Archaeol, Burnaby, BC V5A 1S6, Canada","Burnaby","BC","Canada",49.2219009399,-123.009002685,"Vancouver Canada","Burnaby BC Canada","old mapped address",128,295,0," "," "," "," "," ","Vancouver Canada"," "
246,"WOS:000309621400006",2012,"Pontificia Univ Catolica Chile, Dept Fis, Santiago, Chile","Santiago"," ","Chile",-33.6039085388,-70.6270294189,"Santiago Chile"," Santiago Metropolitan Chile","old mapped address",290,304,0," "," "," "," "," ","Santiago, Chile"," "
245,"WOS:000324912400010",2013,"Univ Western Ontario, Dept Phys & Astron, London, ON N6A 5B7, Canada","London","ON","Canada",42.9868888855,-81.2462081909,"London ON Canada","London ON Canada","old mapped address",320,325,0," "," "," "," "," ","London ON Canada"," "
247,"WOS:000310165500016",2012,"Trinity Coll Dublin, Sch Med, Dept Psychiat, Autism Genet Grp, Dublin 8, Ireland","Dublin"," ","Ireland",53.3330993652,-6.2488899231,"IE021","Dublin Leinster Ireland","old mapped address",263,355,0," "," "," "," "," "," ","IE021"
248,"WOS:000328582400006",2013,"Johns Hopkins Univ, Appl Phys Lab, Laurel, MD 20723 USA","Laurel","MD","USA",39.1049118042,-76.8666381836,47900,"Laurel MD United States","old mapped address",359,364,0,"Maryland",1714670,"Prince George's County",47900,"Washington-Arlington-Alexandria, DC-VA-MD-WV Metro Area"," "," "
249,"WOS:000311146600005",2012,"Hacettepe Univ, Fac Dent, Dept Prosthodont, TR-06100 Ankara, Turkey","Ankara"," ","Turkey",39.9429016113,32.8605003357,"TR510","Ankara Ankara Turkey","old mapped address",277,278,0," "," "," "," "," "," ","TR510"
250,"WOS:000290246800035",2011,"Univ Cologne, Cologne Ctr Genom, Cologne, Germany","Cologne"," ","Germany",50.9416694641,6.955160141,"DEA23","Cologne NW Germany","old manual",266,312,0," "," "," "," "," "," ","DEA23"
252,"WOS:000311547400001",2012,"Lab Instrumentacao & Fis Expt Particulas LIP, Lisbon, Portugal","Lisbon"," ","Portugal",38.716999054,-9.1386404037,"PT170","Lisbon Lisbon Portugal","old mapped address",157,170,0," "," "," "," "," "," ","PT170"
251,"WOS:000281527200122",2010,"INAF Osservatorio Astrofis Arcetri, I-50125 Florence, Italy","Florence"," ","Italy",43.7722015381,11.2536001205,"ITI14","Florence Tosc. Italy","old mapped address",229,232,0," "," "," "," "," "," ","ITI14"
253,"WOS:000285208000023",2010,"Rutherford Appleton Lab, Sci & Technol Facil Council, Didcot OX11 0QX, Oxon, England","Didcot","Oxon","England",51.6091995239,-1.2559700012,"UKJ14","Didcot England United Kingdom","old mapped address",110,130,0," "," "," "," "," "," ","UKJ14"
254,"WOS:000278582700011",2010,"Tel Aviv Med Ctr & Sch Med, Dept Gastroenterol, Tel Aviv, Israel","Tel Aviv"," ","Israel",32.0852584839,34.7901306152,"Tel Aviv Israel","Tel Aviv Tel Aviv Israel","old manual",234,238,0," "," "," "," "," ","Tel Aviv, Israel"," "
255,"WOS:000258899800001",2008,"Univ Mississippi, Med Ctr, Dept Psychiat & Human Behav, Jackson, MS 39216 USA","Jackson","MS","USA",32.2986907959,-90.1804885864,27140,"Jackson MS United States","old mapped address",275,275,0,"Mississippi",695748,"Hinds County",27140,"Jackson, MS Metro Area"," "," "
256,"WOS:000303366000001",2012,"Univ Alabama, Dept Chem, Tuscaloosa, AL 35487 USA","Tuscaloosa","AL","USA",33.2104911804,-87.5659332275,46220,"Tuscaloosa AL United States","old mapped address",250,252,0,"Alabama",161588,"Tuscaloosa County",46220,"Tuscaloosa, AL Metro Area"," "," "
257,"WOS:000328492800009",2013,"Univ Ghent, Dept Clin Chem Microbiol & Immunol, B-9000 Ghent, Belgium","Ghent"," ","Belgium",51.0477981567,3.7055699825,"BE234","Ghent Flemish Region Belgium","old mapped address",249,286,0," "," "," "," "," "," ","BE234"
258,"WOS:000321561204427",2012,"Hebrew Univ Jerusalem, Jerusaelm, Israel","Jerusaelm"," ","Israel",31.7446212769,35.0083045959,"Jerusalem Israel"," Jerusalem Israel","old mapped address",321,324,0," "," "," "," "," ","Jerusalem Israel"," "
259,"WOS:000296714000040",2011,"Hebrew Univ Jerusalem, Sch Med, Dept Pediat, Shaare Zedek Med Ctr, IL-91031 Jerusalem, CD, Israel","Jerusalem","CD","Israel",31.7446212769,35.0083045959,"Jerusalem Israel"," Jerusalem Israel","old mapped address",316,319,0," "," "," "," "," ","Jerusalem Israel"," "
260,"WOS:000303446500007",2012,"Hebrew Univ Jerusalem, Racah Inst Phys, IL-91904 Jerusalem, Israel","Jerusalem"," ","Israel",31.7446212769,35.0083045959,"Jerusalem Israel"," Jerusalem Israel","old mapped address",315,318,0," "," "," "," "," ","Jerusalem Israel"," "
261,"WOS:000294206700007",2011,"Univ Minnesota, Sch Publ Hlth, Div Hlth Policy & Management, St Paul, MN 55108 USA","St Paul","MN","USA",44.9438209534,-93.0933227539,33460,"St Paul MN United States","old mapped address",301,308,0,"Minnesota",659507,"Ramsey County",33460,"Minneapolis-St. Paul-Bloomington, MN-WI Metro Area"," "," "
263,"WOS:000262051100011",2008,"1218 Univ Oregon, Dept Anthropol, Eugene, OR 97403 USA","Eugene","OR","USA",44.0499191284,-123.088539124,21660,"Eugene OR United States","old mapped address",237,240,0,"Oregon",1135855,"Lane County",21660,"Eugene, OR Metro Area"," "," "
262,"WOS:000328723800001",2013,"Univ Basel, Inst Phys, CH-4056 Basel, Switzerland","Basel"," ","Switzerland",47.5708007813,7.5856199265,"CH031","Basel BS Switzerland","old mapped address",258,266,0," "," "," "," "," "," ","CH031"
264,"WOS:000307915700002",2012,"Univ Texas Arlington, Dept Earth & Environm Sci, Arlington, TX 76019 USA","Arlington","TX","USA",32.7355995178,-97.1077194214,19100,"Arlington TX United States","old mapped address",156,301,0,"Texas",1384005,"Tarrant County",19100,"Dallas-Fort Worth-Arlington, TX Metro Area"," "," "
265,"WOS:000329134900002",2013,"Univ Bristol, Sch Expt Psychol, Bristol, Avon, England","Bristol","Avon","England",51.4537887573,-2.5916800499,"UKK11","Bristol England United Kingdom","old mapped address",214,227,0," "," "," "," "," "," ","UKK11"
266,"WOS:000282273100031",2010,"Univ New Hampshire, Water Syst Anal Grp, Durham, NH 03824 USA","Durham","NH","USA",43.1342391968,-70.9248123169,14460,"Durham NH United States","old mapped address",255,280,0,"New Hampshire",873182,"Strafford County",14460,"Boston-Cambridge-Newton, MA-NH Metro Area"," "," "
268,"WOS:000326039300003",2013,"Chonbuk Natl Univ, Jeonju 561756, South Korea","Jeonju"," ","South Korea",35.8269996643,127.144386292,"Jeonju South Korea","Jeonju North Jeolla South Korea","old mapped address",49,136,0," "," "," "," "," ","Jeonju South Korea"," "
267,"WOS:000323048000001",2013,"Georgia Regents Univ Augusta, Dept Family Med, Augusta, GA 30912 USA","Augusta","GA","USA",33.4790916443,-81.9753112793,12260,"Augusta GA United States","old mapped address",298,298,0,"Georgia",358024,"Richmond County",12260,"Augusta-Richmond County, GA-SC Metro Area"," "," "
269,"WOS:000267701300005",2009,"Univ Trieste, I-33100 Udine, Italy","Udine"," ","Italy",46.0572013855,13.2456998825,"ITH42","Udine Fr.V.G. Italy","old manual",98,191,0," "," "," "," "," "," ","ITH42"
270,"WOS:000281602700033",2010,"Christiana Care Hlth Syst, Newark, DE USA","Newark","DE","USA",39.6780090332,-75.7618103027,37980,"Newark DE United States","old mapped address",262,262,0,"Delaware",217270,"New Castle County",37980,"Philadelphia-Camden-Wilmington, PA-NJ-DE-MD Metro Area"," "," "
271,"WOS:000299124400009",2012,"Adv Telecommun Res Inst Innternatinal Promot Inc, Adv Telecommun Res Inst, Innternatinal Media Informat Sci Labs, Keihanna Sci City, Kyoto 6190288, Japan","Keihanna Sci City","Kyoto","Japan",35.028342,135.769378,"Kyoto Japan"," Kyoto Japan","old mapped address",203,209,0," "," "," "," "," ","Kyoto"," "
272,"WOS:000286494700009",2011,"Kyoto Univ, Fushimi Ku, Kyoto, Jp Kyoto 6128522, Japan","Kyoto","Jp Kyoto","Japan",35.028342,135.769378,"Kyoto Japan"," Kyoto Japan","old mapped address",201,207,0," "," "," "," "," ","Kyoto"," "
274,"WOS:000285200000013",2010,"Kyoto Univ, Fac Sci, Sakyou Ku, Kyoto, JP Kyoto 6068502, Japan","Kyoto","JP Kyoto","Japan",35.028342,135.769378,"Kyoto Japan"," Kyoto Japan","old mapped address",201,207,0," "," "," "," "," ","Kyoto"," "
275,"WOS:000312198500029",2012,"Kyoto Univ, Fac Sci, Kyoto, Japan","Kyoto"," ","Japan",35.028342,135.769378,"Kyoto Japan"," Kyoto Japan","old mapped address",201,207,0," "," "," "," "," ","Kyoto"," "
273,"WOS:000318290600006",2013,"SUNY Albany, Dept Phys, Albany, NY 12222 USA","Albany","NY","USA",42.651550293,-73.7552108765,10580,"Albany NY United States","old mapped address",267,267,0,"New York",974099,"Albany County",10580,"Albany-Schenectady-Troy, NY Metro Area"," "," "
276,"WOS:000285521500011",2010,"Oregon State Univ, Dept Geosci, Corvallis, OR 97331 USA","Corvallis","OR","USA",44.5650405884,-123.263526917,18700,"Corvallis OR United States","old mapped address",286,291,0,"Oregon",1155126,"Benton County",18700,"Corvallis, OR Metro Area"," "," "
277,"WOS:000264056600003",2009,"Natl Canc Detect Clin, Reykjavik, Iceland","Reykjavik"," ","Iceland",64.1474075317,-21.9339904785,"IS001","ReykjavÃ­k HÃ¶fuÃ°borgarsvÃ¦Ã°iÃ° Iceland","old manual",197,206,0," "," "," "," "," "," ","IS001"
278,"WOS:000272803600006",2009,"Res Inst Particle & Nucl Phys, H-1525 Budapest, Hungary","Budapest"," ","Hungary",47.5130310059,19.1229801178,"HU101","Budapest Budapest Hungary","old mapped address",259,261,0," "," "," "," "," "," ","HU101"
279,"WOS:000264065500008",2009,"Univ Leipzig, Eye Clin, Leipzig, Germany","Leipzig"," ","Germany",51.345199585,12.3859395981,"DED51","Leipzig SN Germany","old mapped address",262,270,0," "," "," "," "," "," ","DED51"
280,"WOS:000294060700003",2011,"Univ Calif Berkeley, Oakland, CA USA","Oakland","CA","USA",37.8050804138,-122.273071289,41860,"Oakland CA United States","old mapped address",241,243,0,"California",1675839,"Alameda County",41860,"San Francisco-Oakland-Hayward, CA Metro Area"," "," "
281,"WOS:000328593900008",2013,"Pine Rest Christian Mental Hlth Serv, Dept Behav Med, Grand Rapids, MI USA","Grand Rapids","MI","USA",42.9664115906,-85.6711807251,24340,"Grand Rapids MI United States","old mapped address",245,245,0,"Michigan",1622983,"Kent County",24340,"Grand Rapids-Wyoming, MI Metro Area"," "," "
282,"WOS:000316119800004",2013,"Univ Med & Dent New Jersey, Robert Wood Johnson Med Sch, Newark, NJ 07103 USA","Newark","NJ","USA",40.7319717407,-74.1742095947,35620,"Newark NJ United States","old mapped address",281,282,0,"New Jersey",882276,"Essex County",35620,"New York-Newark-Jersey City, NY-NJ-PA Metro Area"," "," "
283,"WOS:000308074600052",2012,"Penn State Univ, Dept Biochem & Mol Biol, Coll Med, Hershey, PA 17033 USA","Hershey","PA","USA",40.2853813171,-76.6509094238,25420,"Hershey PA United States","old mapped address",270,271,0,"Pennsylvania",1213667,"Dauphin County",25420,"Harrisburg-Carlisle, PA Metro Area"," "," "
284,"WOS:000253193000013",2008,"Lund Univ, Lund, Sweden","Lund"," ","Sweden",55.7242012024,13.220700264,"SE224","Lund Skane County Sweden","old manual",153,179,0," "," "," "," "," "," ","SE224"
286,"WOS:000307299800045",2012,"Tufts Univ, Ctr Sci & Technol, Medford, MA 02155 USA","Medford","MA","USA",42.4198112488,-71.108757019,14460,"Medford MA United States","old mapped address",100,174,0,"Massachusetts",606935,"Middlesex County",14460,"Boston-Cambridge-Newton, MA-NH Metro Area"," "," "
285,"WOS:000329161300014",2013,"MRC Toxicol Unit, Leicester LE1 9HN, Leics, England","Leicester","Leics","England",52.5988769531,-1.4668813944,"UKF22"," England United Kingdom","old mapped address",238,244,0," "," "," "," "," "," ","UKF22"
288,"WOS:000279513800002",2010,"SPP, CEA, Saclay, France","Saclay"," ","France",48.731098175,2.173719883,"PARIS","Saclay IdF France","old mapped address",58,348,0," "," "," "," "," "," ","PARIS"
287,"WOS:000302606800013",2012,"Univ Granada, Sch Dent, Oral Surg & Implant Dent Dept, Granada, Spain","Granada"," ","Spain",37.2935371399,-3.2729349136,"ES614","GR Andalusia Spain","old mapped address",227,240,0," "," "," "," "," "," ","ES614"
289,"WOS:000318250600066",2013,"Univ Victoria, Dept Elect & Comp Engn, Victoria, BC V8W 3P6, Canada","Victoria","BC","Canada",48.4388999939,-123.396003723,"Victoria BC Canada","Victoria BC Canada","old mapped address",191,196,0," "," "," "," "," ","Victoria BC Canada"," "
290,"WOS:000303221800005",2012,"Jagiellonian Univ, Inst Phys, Krakow, Poland","Krakow"," ","Poland",50.0733985901,20.035900116,"PL213","Cracow MP Poland","old mapped address",106,114,0," "," "," "," "," "," ","PL213"
291,"WOS:000305238600077",2012,"No Illinois Univ, Dept Phys, De Kalb, IL 60115 USA","De Kalb","IL","USA",41.9292984009,-88.7492980957,16980,"De Kalb IL United States","old mapped address",96,281,0,"Illinois",422190,"DeKalb County",16980,"Chicago-Naperville-Elgin, IL-IN-WI Metro Area"," "," "
292,"WOS:000319253700002",2013,"Dogus Univ, TR-34722 Istanbul, Turkey","Istanbul"," ","Turkey",41.0607299805,28.9877700806,"TR100","Istanbul Istanbul Turkey","old mapped address",224,225,0," "," "," "," "," "," ","TR100"
294,"WOS:000208329600003",2010,"Rutgers State Univ, Inst Hlth Hlth Care Policy & Aging Res, New Brunswick, NJ 08903 USA","New Brunswick","NJ","USA",40.49477005,-74.4438095093,35620,"New Brunswick NJ United States","old mapped address",259,261,0,"New Jersey",882230,"Middlesex County",35620,"New York-Newark-Jersey City, NY-NJ-PA Metro Area"," "," "
293,"WOS:000307930600004",2012,"W Virginia Univ, Dept Polit Sci, Morgantown, WV 26506 USA","Morgantown","WV","USA",39.6303710938,-79.9578475952,34060,"Morgantown WV United States","old mapped address",286,287,0,"West Virginia",1550037,"Monongalia County",34060,"Morgantown, WV Metro Area"," "," "
296,"WOS:000291464100002",2011,"Nanjing Univ, Nanjing 210093, Peoples R China","Nanjing"," ","Peoples R China",32.0497817993,118.765983582,"Nanjing Jiangsu China","Nanjing Jiangsu China","old mapped address",255,255,0," "," "," "," "," ","Nanjing Jiangsu China"," "
295,"WOS:000311713200013",2012,"Univ Erlangen Nurnberg, Inst Human Genet, D-91054 Erlangen, Germany","Erlangen"," ","Germany",49.5872993469,11.0257997513,"DE252","Erlangen BY Germany","old manual",212,250,0," "," "," "," "," "," ","DE252"
297,"WOS:000313945300002",2013,"Tech Univ Dresden, Inst Kern & Teilchenphys, D-01062 Dresden, Germany","Dresden"," ","Germany",51.0536308289,13.7408103943,"DED21","Dresden SN Germany","old mapped address",175,175,0," "," "," "," "," "," ","DED21"
298,"WOS:000307307700002",2012,"Univ Elect Sci & Technol China, Sch Phys Elect, Chengdu 610054, Peoples R China","Chengdu"," ","Peoples R China",30.65636,104.065984,"Chengdu Sichuan China","Chengdu Sichuan China","old manual",288,288,0," "," "," "," "," ","Chengdu Sichuan China"," "
299,"WOS:000252611100004",2008,"Indiana Univ NW, Gary, IN 46408 USA","Gary","IN","USA",41.6037101746,-87.3371734619,16980,"Gary IN United States","old mapped address",277,278,0,"Indiana",450495,"Lake County",16980,"Chicago-Naperville-Elgin, IL-IN-WI Metro Area"," "," "
300,"WOS:000302454700004",2012,"Brandeis Univ, Dept Phys, Waltham, MA 02254 USA","Waltham","MA","USA",42.3764381409,-71.2353210449,14460,"Waltham MA United States","old mapped address",215,253,0,"Massachusetts",606935,"Middlesex County",14460,"Boston-Cambridge-Newton, MA-NH Metro Area"," "," "
301,"WOS:000270645900445",2009,"St Joseph Mercy Hosp, Ypsilanti, MI USA","Ypsilanti","MI","USA",42.2408103943,-83.6130905151,11460,"Ypsilanti MI United States","old mapped address",274,275,0,"Michigan",1623021,"Washtenaw County",11460,"Ann Arbor, MI Metro Area"," "," "
303,"WOS:000322811400005",2013,"Perimeter Inst Theoret Phys, Waterloo, ON N2L 2Y5, Canada","Waterloo","ON","Canada",43.5094985962,-80.5509033203,"Waterloo ON Canada","Waterloo ON Canada","old mapped address",273,277,0," "," "," "," "," ","Waterloo ON Canada"," "
302,"WOS:000253852000016",2008,"Loyola Univ, Dept Thorac Surg, Maywood, IL 60153 USA","Maywood","IL","USA",41.8877906799,-87.8392105103,16980,"Maywood IL United States","old mapped address",221,221,0,"Illinois",1784766,"Cook County",16980,"Chicago-Naperville-Elgin, IL-IN-WI Metro Area"," "," "
304,"WOS:000263801200013",2009,"Ctr Plant Biodivers Res, Canberra, ACT 2601, Australia","Canberra","ACT","Australia",-35.3065414429,149.126556397," Canberra Australia","Canberra ACT Australia","old mapped address",199,200,0," "," "," "," "," "," Canberra Australia"," "
306,"WOS:000253764400015",2008,"Univ Lancaster, Lancaste, England","Lancaste"," ","England",54.0484008789,-2.7932898998,"UKD44","Lancaster England United Kingdom","old mapped address",51,236,0," "," "," "," "," "," ","UKD44"
305,"WOS:000274131200031",2010,"Sahlgrens Univ Hosp, Div Gastroenterol & Hepatol, Gothenburg, Sweden","Gothenburg"," ","Sweden",57.672000885,12.0335998535,"SE232","Gothenburg Vastra Gotaland County Sweden","old manual",223,239,0," "," "," "," "," "," ","SE232"
307,"WOS:000310341300030",2012,"Univ Lancaster, Dept Phys, Lancaster, England","Lancaster"," ","England",54.0484008789,-2.7932898998,"UKD44","Lancaster England United Kingdom","old mapped address",51,236,0," "," "," "," "," "," ","UKD44"
308,"WOS:000312544900017",2013,"Univ Ferrara, Dept Expt & Clin Med, Pharmacol Sect, I-44100 Ferrara, Italy","Ferrara"," ","Italy",44.8115005493,11.5872001648,"ITH56","Ferrara Em.Rom. Italy","old manual",155,255,0," "," "," "," "," "," ","ITH56"
309,"WOS:000259691000016",2008,"Univ Libre Bruxelles, Brussels, Belgium","Brussels"," ","Belgium",50.8427009583,4.3781099319,"BE100","Brussels Brussels Region Belgium","old mapped address",253,253,0," "," "," "," "," "," ","BE100"
310,"WOS:000271247600018",2009,"Univ Tubingen Hosp, Inst Pathol, Ctr Comprehens Canc, Tubingen, Germany","Tubingen"," ","Germany",48.5213012695,9.052980423,"DE142","TÃ¼bingen BW Germany","old manual",246,247,0," "," "," "," "," "," ","DE142"
311,"WOS:000267481100012",2009,"Univ Connecticut, Ctr Hlth, Farmington, CT USA","Farmington","CT","USA",41.7121200562,-72.8385696411,25540,"Farmington CT United States","old mapped address",180,181,0,"Connecticut",212338,"Hartford County",25540,"Hartford-West Hartford-East Hartford, CT Metro Area"," "," "
313,"WOS:000295500400007",2011,"Nagoya Univ, Grad Sch Sci, Nagoya, Aichi 4648601, Japan","Nagoya","Aichi","Japan",35.1433639526,136.916732788,"Aichi Japan","Nagoya Aichi Japan","old mapped address",192,197,0," "," "," "," "," ","Aichi"," "
312,"WOS:000263898900002",2009,"Long Isl Univ, Arnold & Marie Schwartz Coll Pharm & Hlth Sci, Dept Pharm Practice, Brooklyn, NY USA","Brooklyn","NY","USA",40.6924514771,-73.9903564453,35620,"Brooklyn NY United States","old mapped address",212,212,0,"New York",974122,"Kings County",35620,"New York-Newark-Jersey City, NY-NJ-PA Metro Area"," "," "
314,"WOS:000307506200004",2012,"Hunan Univ, Changsha 410082, Hunan, Peoples R China","Changsha","Hunan","Peoples R China",28.196149826,112.972679138,"Changsha Hunan China","Changsha Hunan China","old mapped address",266,266,0," "," "," "," "," ","Changsha Hunan China"," "
315,"WOS:000325442100006",2013,"Carolinas Rehabil, Charlotte, NC USA","Charlotte","NC","USA",35.222858429,-80.8379592896,16740,"Charlotte NC United States","old mapped address",222,222,0,"North Carolina",1008570,"Mecklenburg County",16740,"Charlotte-Concord-Gastonia, NC-SC Metro Area"," "," "
316,"WOS:000306416500089",2012,"Univ Sci & Technol China, Dept Modern Phys, Hefei, Anhui, Peoples R China","Hefei","Anhui","Peoples R China",31.8700294495,117.27456665,"Hefei Anhui China","Hefei Anhui China","old mapped address",94,95,0," "," "," "," "," ","Hefei Anhui China"," "
317,"WOS:000252732900014",2008,"Citta Univ Monserrato, CNR, INN, I-09042 Cagliari, Italy","Cagliari"," ","Italy",39.248298645,9.1266298294,"ITG27","Cagliari Sard. Italy","old manual",232,238,0," "," "," "," "," "," ","ITG27"
318,"WOS:000281800800016",2010,"George Mason Univ, Sch Publ Policy, Fairfax, VA 22030 USA","Fairfax","VA","USA",38.8417892456,-77.3088684082,47900,"Fairfax VA United States","old mapped address",196,201,0,"Virginia",1789070,"Fairfax city",47900,"Washington-Arlington-Alexandria, DC-VA-MD-WV Metro Area"," "," "
319,"WOS:000285132200007",2010,"City Hope Comprehens Canc Ctr, Duarte, CA USA","Duarte","CA","USA",34.1396102905,-117.970497131,31080,"Duarte CA United States","old mapped address",198,199,0,"California",277283,"Los Angeles County",31080,"Los Angeles-Long Beach-Anaheim, CA Metro Area"," "," "
320,"WOS:000301610700006",2012,"Deutsch Lufthansa AG, Lufthansa Aviat Ctr, D-60546 Frankfurt, Germany","Frankfurt"," ","Germany",50.1120796204,8.6834096909,"DE712","Frankfurt HE Germany","old manual",230,257,0," "," "," "," "," "," ","DE712"
321,"WOS:000285725900032",2011,"Univ Texas Galveston, Off Educ Dev, Galveston, TX 77555 USA","Galveston","TX","USA",29.2953205109,-94.8079071045,26420,"Galveston TX United States","old mapped address",230,230,0,"Texas",1383869,"Galveston County",26420,"Houston-The Woodlands-Sugar Land, TX Metro Area"," "," "
322,"WOS:000258427100013",2008,"Ohio Univ, Athens, OH 45701 USA","Athens","OH","USA",39.3284988403,-82.1044387817,11900,"Athens OH United States","old mapped address",152,189,0,"Ohio",1074018,"Athens County",11900,"Athens, OH Micro Area"," "," "
323,"WOS:000326384100007",2013,"Kuopio Univ Hosp, Dept Clin Physiol & Nucl Med, SF-70210 Kuopio, Finland","Kuopio"," ","Finland",62.9057006836,27.6847991943,"FI1D2","Kuopio Eastern Finland Finland","old mapped address",209,217,0," "," "," "," "," "," ","FI1D2"
324,"WOS:000315583600035",2013,"DESY, Zeuthen, Germany","Zeuthen"," ","Germany",52.3511009216,13.6161003113,"BERLIN","Zeuthen BB Germany","old manual",29,77,0," "," "," "," "," "," ","BERLIN"
325,"WOS:000297490400002",2011,"Ist Nazl Fis Nucl, Sez Pavia, I-27100 Pavia, Italy","Pavia"," ","Italy",45.1945991516,9.1771202087,"ITC48","Pavia Lomb. Italy","old manual",101,167,0," "," "," "," "," "," ","ITC48"
327,"WOS:000313160300006",2013,"LAPP, CNRS, IN2P3, Annecy Le Vieux, France","Annecy Le Vieux"," ","France",45.9254989624,6.1285200119,"FR718","Annecy-le-Vieux Rhone-Alpes France","old mapped address",9,9,0," "," "," "," "," "," ","FR718"
326,"WOS:000310845200001",2012,"Univ Cantabria, Inst Fis Cantabria, CSIC, E-39005 Santander, Spain","Santander"," ","Spain",43.4641990662,-3.829390049,"ES130","Santander Cantabria Spain","old manual",26,138,0," "," "," "," "," "," ","ES130"
328,"WOS:000283949600009",2010,"Kent State Univ, Dept Psychol, Kent, OH 44242 USA","Kent","OH","USA",41.1509284973,-81.3582229614,10420,"Kent OH United States","old mapped address",158,187,0,"Ohio",1074079,"Portage County",10420,"Akron, OH Metro Area"," "," "
329,"WOS:000280128300013",2010,"Univ Cordoba, Fac Med, Dept Surg, Anat Pathol Unit, E-14004 Cordoba, Spain","Cordoba"," ","Spain",37.8856010437,-4.7587299347,"ES613","CÃ³rdoba Andalusia Spain","old mapped address",244,244,0," "," "," "," "," "," ","ES613"
330,"WOS:000297569700003",2011,"Mahidol Univ, Dept Trop Nutr & Food Sci, Fac Trop Med, Bangkok 10400, Thailand","Bangkok"," ","Thailand",13.7533502579,100.504829407,"Bangkok Thailand","Bangkok Bangkok City Thailand","old manual",235,236,0," "," "," "," "," ","Bangkok Thailand"," "
331,"WOS:000323572800001",2013,"Baylor Univ, Waco, TX 76798 USA","Waco","TX","USA",31.5718193054,-97.1494979858,47380,"Waco TX United States","old mapped address",94,151,0,"Texas",1383946,"McLennan County",47380,"Waco, TX Metro Area"," "," "
334,"WOS:000319644100007",2013,"Natl Chung Hsing Univ, Dept Anim Sci, Taichung 40227, Taiwan","Taichung"," ","Taiwan",24.1637706757,120.647140503,"T'aichung  Taiwan","T'aichung  Taiwan","old mapped address",217,220,0," "," "," "," "," ","T'aichung  Taiwan"," "
332,"WOS:000265961100067",2009,"Auburn Univ, Dept Phys, Auburn, AL 36849 USA","Auburn","AL","USA",32.6041412354,-85.481880188,12220,"Auburn AL United States","old mapped address",179,180,0,"Alabama",161566,"Lee County",12220,"Auburn-Opelika, AL Metro Area"," "," "
333,"WOS:000278587500007",2010,"Novartis Pharmaceut, E Hanover, NJ USA","E Hanover","NJ","USA",40.825969696,-74.3606185913,35620,"East Hanover NJ United States","old mapped address",200,200,0,"New Jersey",882231,"Morris County",35620,"New York-Newark-Jersey City, NY-NJ-PA Metro Area"," "," "
335,"WOS:000289494200021",2011,"89 North Inc, Burlington, VT USA","Burlington","VT","USA",44.4759216309,-73.2132263184,15540,"Burlington VT United States","old mapped address",200,200,0,"Vermont",1461760,"Chittenden County",15540,"Burlington-South Burlington, VT Metro Area"," "," "
336,"WOS:000286708700017",2011,"Univ Strasbourg, CNRS, IN2P3, IPHC, Strasbourg, France","Strasbourg"," ","France",48.5906982422,7.699930191,"FR421","Strasbourg Alsace France","old mapped address",105,237,0," "," "," "," "," "," ","FR421"
338,"WOS:000325229300006",2013,"Berg Univ Wuppertal, Fachbereich Phys C, Wuppertal, Germany","Wuppertal"," ","Germany",51.2715492249,7.196559906,"DEA1A","Wuppertal NW Germany","old manual",29,105,0," "," "," "," "," "," ","DEA1A"
337,"WOS:000292541500012",2011,"Abo Akad Univ, Turku, Finland","Turku"," ","Finland",60.4540596008,22.2669944763,"FI1C1","Turku Southwest Finland Finland","old manual",178,183,0," "," "," "," "," "," ","FI1C1"
339,"WOS:000284150900029",2010,"Univ Leeds, Sch Phys & Astron, Leeds LS2 9JT, W Yorkshire, England","Leeds","W Yorkshire","England",53.7998008728,-1.5482000113,"UKE42","Leeds city centre England United Kingdom","old mapped address",176,188,0," "," "," "," "," "," ","UKE42"
340,"WOS:000310609100025",2012,"SB RAS, Budker Inst Nucl Phys, Novosibirsk, Russia","Novosibirsk"," ","Russia",55.039768219,82.9102096558,"Novosibirsk Russia","Novosibirsk Novosibirsk Russia","old mapped address",67,75,0," "," "," "," "," ","Novosibirsk Russia"," "
342,"WOS:000278018900002",2010,"Curtin Univ Technol, Inst Geol Res, Dept Appl Geol, Perth, WA, Australia","Perth","WA","Australia",-31.9470996857,115.865997315,"Perth WA Australia","Perth WA Australia","old mapped address",157,160,0," "," "," "," "," ","Perth, WA, Australia"," "
341,"WOS:000327442104364",2013,"Monash Univ, Accid Res Ctr, Clayton, Vic, Australia","Clayton","Vic","Australia",-37.9368247986,145.131866455,"Melbourne VIC Australia","Clayton VIC Australia","old mapped address",209,210,0," "," "," "," "," ","Melbourne VIC Australia"," "
343,"WOS:000292993900005",2011,"Univ Antonio Narino, Ctr Invest, Bogota, Colombia","Bogota"," ","Colombia",4.3153343201,-74.1796035767,"Bogota Colombia"," Capital District Colombia","old mapped address",122,192,0," "," "," "," "," ","Bogota Colombia"," "
344,"WOS:000325874200016",2013,"Vet Hlth Adm Connecticut Healthcare Syst, Med Serv, West Haven, CT USA","West Haven","CT","USA",41.2722816467,-72.9499816895,35300,"West Haven CT United States","old mapped address",197,197,0,"Connecticut",212798,"New Haven County",35300,"New Haven-Milford, CT Metro Area"," "," "
345,"WOS:000282193600041",2010,"Lowell Observ, Flagstaff, AZ 86001 USA","Flagstaff","AZ","USA",35.1982002258,-111.651298523,22380,"Flagstaff AZ United States","old mapped address",207,208,0,"Arizona",25443,"Coconino County",22380,"Flagstaff, AZ Metro Area"," "," "
346,"WOS:000281242000012",2010,"William Beaumont Hosp, Dept Surg, Royal Oak, MI 48072 USA","Royal Oak","MI","USA",42.4881515503,-83.1424407959,19820,"Royal Oak MI United States","old mapped address",177,177,0,"Michigan",1623005,"Oakland County",19820,"Detroit-Warren-Dearborn, MI Metro Area"," "," "
347,"WOS:000291942400003",2011,"Weizmann Inst Sci, Dept Particle Phys, IL-76100 Rehovot, Israel","Rehovot"," ","Israel",31.8957748413,34.8096961975,"Tel Aviv Israel","Rehovot Merkaz Israel","old manual",139,147,0," "," "," "," "," ","Tel Aviv Israel"," "
348,"WOS:000312548600003",2012,"Univ Tehran, Coll Engn, Ctr Excellence Intelligent Based Expt Mech, Tehran, Iran","Tehran"," ","Iran",35.689540863,51.4146842957,"Tehran Iran","Tehran Tehran Iran","old mapped address",202,202,0," "," "," "," "," ","Tehran Iran"," "
349,"WOS:000307010700030",2012,"Newcastle Univ, No Inst Canc Res, Newcastle Upon Tyne NE1 4LP, Tyne & Wear, England","Newcastle Upon Tyne","Tyne & Wear","England",54.9615707397,-1.6402900219,"UKC22","Newcastle Business Park England United Kingdom","old mapped address",158,178,0," "," "," "," "," "," ","UKC22"
350,"WOS:000297706700002",2011,"Univ Sheffield, Dept Phys & Astron, Sheffield, S Yorkshire, England","Sheffield","S Yorkshire","England",53.381401062,-1.4745999575,"UKE32","Sheffield City Centre England United Kingdom","old manual",100,102,0," "," "," "," "," "," ","UKE32"
351,"WOS:000322631700014",2013,"Univ Hosp Schleswig Holstein, Dept Dermatol Venereol & Allergy, Kiel, Germany","Kiel"," ","Germany",54.3232498169,10.1322402954,"DEF02","Kiel SH Germany","old manual",178,189,0," "," "," "," "," "," ","DEF02"
352,"WOS:000311141400004",2012,"Indian Inst Technol, Bombay 400076, Maharashtra, India","Bombay","Maharashtra","India",18.9301300049,72.8300933838,"Bombay","Mumbai Maharashtra India","old mapped address",85,180,0," "," "," "," "," ","Bombay"," "
353,"WOS:000283701300005",2010,"Kansas State Univ, Manhattan, KS 66506 USA","Manhattan","KS","USA",39.1788101196,-96.5618362427,31740,"Manhattan KS United States","old mapped address",123,242,0,"Kansas",485044,"Riley County",31740,"Manhattan, KS Metro Area"," "," "
354,"WOS:000305470100052",2012,"Univ Southampton, Sch Phys & Astron, Southampton SO17 1BJ, Hants, England","Southampton","Hants","England",50.9014015198,-1.4040999413,"UKJ32","Southampton City Centre England United Kingdom","old mapped address",158,162,0," "," "," "," "," "," ","UKJ32"
355,"WOS:000311284200002",2012,"Univ Giessen, Inst Phys 2, Giessen, Germany","Giessen"," ","Germany",50.5840988159,8.6783599854,"DE721","Giessen HE Germany","old manual",88,121,0," "," "," "," "," "," ","DE721"
356,"WOS:000316110400029",2013,"NHLBI, Div Intramural Res, Framingham, MA USA","Framingham","MA","USA",42.2797889709,-71.4163513184,14460,"Framingham MA United States","old mapped address",132,147,0,"Massachusetts",606935,"Middlesex County",14460,"Boston-Cambridge-Newton, MA-NH Metro Area"," "," "
357,"WOS:000266336300010",2009,"Univ Tokyo, IPMU, Chiba 2778568, Japan","Chiba"," ","Japan",35.4557533264,140.204086304,"Chiba Japan"," Chiba Japan","old mapped address",178,178,0," "," "," "," "," ","Chiba"," "
358,"WOS:000257902500049",2008,"Univ Wyoming, Dept Mol Biol, Laramie, WY 82071 USA","Laramie","WY","USA",41.310798645,-105.590316773,29660,"Laramie WY United States","old mapped address",196,197,0,"Wyoming",1605066,"Albany County",29660,"Laramie, WY Micro Area"," "," "
359,"WOS:000310575900008",2012,"Publ Hlth Agcy Canada, Special Pathogens Program, Natl Microbiol Lab, Winnipeg, MB R3E 3R2, Canada","Winnipeg","MB","Canada",49.9164009094,-97.2069015503,"Kolkata West Bengal India","Winnipeg MB Canada","old mapped address",185,185,0," "," "," "," "," ","Kolkata West Bengal India"," "
360,"WOS:000281624300014",2010,"NASA, Ames Res Ctr, Moffett Field, CA 94035 USA","Moffett Field","CA","USA",37.4163665771,-122.051673889,41940,"Moffett Field CA United States","old mapped address",176,177,0,"California",277307,"Santa Clara County",41940,"San Jose-Sunnyvale-Santa Clara, CA Metro Area"," "," "
362,"WOS:000317454600008",2013,"Univ Cent Florida, Coll Business Adm, Orlando, FL 32816 USA","Orlando","FL","USA",28.538230896,-81.3773880005,36740,"Orlando FL United States","old mapped address",203,203,0,"Florida",295750,"Orange County",36740,"Orlando-Kissimmee-Sanford, FL Metro Area"," "," "
361,"WOS:000288278100111",2011,"Indiana Univ SE, New Albany, IN 47150 USA","New Albany","IN","USA",38.2855110168,-85.8246307373,31140,"New Albany IN United States","old mapped address",185,185,0,"Indiana",450350,"Floyd County",31140,"Louisville/Jefferson County, KY-IN Metro Area"," "," "
363,"WOS:000254679900001",2008,"Kansas City Vet Affairs Med Ctr, Kansas City, KS USA","Kansas City","KS","USA",39.1135215759,-94.6268234253,28140,"Kansas City KS United States","old mapped address",183,183,0,"Kansas",485065,"Wyandotte County",28140,"Kansas City, MO-KS Metro Area"," "," "
364,"WOS:000292080300002",2011,"RAND Corp, Santa Monica, CA USA","Santa Monica","CA","USA",34.0115585327,-118.492286682,31080,"Santa Monica CA United States","old mapped address",186,186,0,"California",277283,"Los Angeles County",31080,"Los Angeles-Long Beach-Anaheim, CA Metro Area"," "," "
366,"WOS:000286909700022",2011,"Observ Paris, F-92195 Meudon, France","Meudon"," ","France",48.8163986206,2.2440199852,"PARIS","Meudon IdF France","old mapped address",145,153,0," "," "," "," "," "," ","PARIS"
365,"WOS:000314805800002",2013,"Aarhus Univ, Dept Biosci, Aarhus, Denmark","Aarhus"," ","Denmark",56.1845016479,10.1903095245,"DK042","Ã…rhus Middle Jutland Denmark","old manual",172,176,0," "," "," "," "," "," ","DK042"
