"id","Label","Lat","Lng","Country","total","name","tag"
1,"""Maseno""",-0.01,34.59,,68,"MASENO|KENYA;MASONO|KENYA;MESENO|KENYA",0
3,"""Baraton""",-0.02,37.9,,44,"BARATON|KENYA;EDLORET|KENYA;EDORET|KENYA;EGERTON|KENYA;ELDOVEL|KENYA;ENDORET|KENYA;JORO|KENYA;KILIFT|KENYA;MARSABIL|KENYA;NARIOBIM|KENYA;PHUTHADITJHABA|KENYA;RIFT VALEY|KENYA;SIDA|KENYA",0
4,"""Porto Alerge""",-0.03,-51.17,,21,"PORTO ALERGE|BRAZIL;PORTO NACL|BRAZIL",0
5,"""Kisumu""",-0.09,34.76,,178,"KISUMU|KENYA",0
11,"""Quito""",-0.22,-78.52,,500,"QUITO|ECUADOR",0
13,"""Nakuru""",-0.29,36.06,,18,"NAKURU|KENYA",0
16,"""Nijoro""",-0.33,35.94,,151,"NIJORO|KENYA;NJORA|KENYA;NJORE|KENYA;NJORO|KENYA",0
17,"""Kononia""",-0.35,149.87,,9,"KONONIA|MICRONESIA;KOROR|MICRONESIA;PONAPE|MICRONESIA",0
19,"""Kericho""",-0.37,35.28,,22,"KERICHO|KENYA",0
21,"""Mbita Point""",-0.42,34.2,,6,"MBITA POINT|KENYA;MBITA|KENYA",0
23,"""Galapagos""",-0.44,-91.18,,6,"GALAPAGOS|ECUADOR",0
27,"""Samarinda""",-0.5,117.15,,6,"SAMARINDA|INDONESIA",0
28,"""Mbarara""",-0.52,30.56,,49,"MBARARA|UGANDA",0
30,"""Isla Santa Cruz""",-0.53,-90.34,,10,"ISLA SANTA CRUZ|ECUADOR;SANTA CRUZ|ECUADOR",0
35,"""Cosanga""",-0.6,-77.86,,13,"COSANGA|ECUADOR",0
36,"""Bukavu""",-0.66,14.92,,27,"BUKAVU|CONGO;GOMA|CONGO;KIMPESE|CONGO;KISANGANI|CONGO;LIKASI|CONGO;LUBUMBASHI|CONGO;LWIRO|CONGO;MBANZA NGUNGU|CONGO;MBUJIMAYI|CONGO;RD|CONGO;UVIRA|CONGO",0
39,"""Kangemi""",-0.68,36.96,,16,"KANGEMI|KENYA;NAIVASHA|KENYA",0
40,"""Lambarene""",-0.7,10.21,,62,"LAMBARENE|GABON",0
43,"""Puerto Ayora Santa Cruz""",-0.72,-90.32,,6,"PUERTO AYORA SANTA CRUZ|ECUADOR;PUERTO AYORA|ECUADOR",0
47,"""Bomet""",-0.78,35.34,,6,"BOMET|KENYA",0
49,"""Maracana""",-0.83,-47.44,,26,"MARACANA|BRAZIL",0
54,"""Palu""",-0.91,119.85,,5,"PALU|INDONESIA",0
57,"""Padang""",-0.94,100.36,,11,"PADANG|INDONESIA",0
58,"""Kijabe""",-0.94,36.59,,7,"KIJABE|KENYA",0
60,"""Quevedo""",-1.01,-79.47,,9,"QUEVEDO|ECUADOR",0
62,"""Aldeia Braganca""",-1.06,-46.78,,57,"ALDEIA BRAGANCA|BRAZIL;BRAGANCA PA|BRAZIL;BRAGANCA|BRAZIL",0
66,"""Ruiru""",-1.14,36.95,,9,"RUIRU|KENYA",0
68,"""Kabale""",-1.23,30.01,,16,"KABALE|UGANDA",0
70,"""Balikpapan""",-1.26,116.83,,12,"BALIKPAPAN|INDONESIA",0
71,"""Kikuyu""",-1.26,36.61,,53,"KIKUYU|KENYA",0
73,"""Karen Nairobi""",-1.27,36.8,,2561,"KAREN NAIROBI|KENYA;NAIROBI GPO|KENYA;NAIROBI|KENYA",0
74,"""Castanhal""",-1.29,-47.92,,23,"CASTANHAL|BRAZIL",0
78,"""Marituba""",-1.35,-48.34,,5,"MARITUBA|BRAZIL",0
79,"""Ananindeua""",-1.36,-48.37,,32,"ANANINDEUA|BRAZIL",0
89,"""Machakos""",-1.51,37.26,,9,"MACHAKOS|KENYA",0
93,"""Franceville""",-1.63,13.6,,116,"FRANCEVILLE|GABON;MASUKU FRANCEVILLE|GABON",0
97,"""Jambi""",-1.74,102.83,,7,"JAMBI|INDONESIA",0
98,"""Apia""",-1.78,-78.1,,22,"APIA|ECUADOR;CARCELEN|ECUADOR;CASA VILLA MARY|ECUADOR;CASILLA|ECUADOR;COMBAYA|ECUADOR;CORPAIRE|ECUADOR;EL PROGRESSO|ECUADOR;GUDYAGUR|ECUADOR;PORTOVLEJO|ECUADOR;QUINTO|ECUADOR;QUITA|ECUADOR;TEREER PISO|ECUADOR;VANCOUVER|ECUADOR",0
104,"""Kigali""",-1.95,30.05,,69,"KIGALI|RWANDA;KIST KIGALI|RWANDA",0
109,"""Palmas To""",-10.16,-48.33,,33,"PALMAS TO|BRAZIL;PALMAS|BRAZIL",0
116,"""Chilumba""",-10.43,34.24,,5,"CHILUMBA|MALAWI",0
119,"""Sergipe""",-10.54,-37.32,,23,"SERGIPE|BRAZIL",0
122,"""Porto Nacional""",-10.7,-48.41,,7,"PORTO NACIONAL|BRAZIL",0
126,"""Ji Parana Ro""",-10.88,-61.94,,8,"JI PARANA RO|BRAZIL;JI PARANA|BRAZIL",0
128,"""Aracaju Se""",-10.9,-37.07,,190,"ARACAJU SE|BRAZIL;ARACAJU|BRAZIL",0
133,"""Cristovao""",-11.01,-37.22,,302,"CRISTOVAO|BRAZIL;ROSA ELZE SAO CRISTOVAO|BRAZIL;S CRISTOVAO|BRAZIL;SAO CHRISTOVAO|BRAZIL;SAO CRISTAOVAO|BRAZIL;SAO CRISTOVADO|BRAZIL;SAO CRISTOVAO SERGIPE|BRAZIL;SAO CRISTOVAO SE|BRAZIL;SAO CRISTOVAOL|BRAZIL;SAO CRISTOVAO|BRAZIL;SAO CRISTOVOA|BRAZIL;SAO C",0
138,"""Sao Gabriel""",-11.25,-41.9,,8,"SAO GABRIEL|BRAZIL",0
144,"""Mzuzu""",-11.46,34.02,,7,"MZUZU|MALAWI",0
147,"""Cuite""",-11.6,-39.33,,9,"CUITE|BRAZIL",0
153,"""Campus De Gurupi""",-11.72,-49.07,,23,"CAMPUS DE GURUPI|BRAZIL;GURUPI TO|BRAZIL;GURUPI|BRAZIL",0
154,"""Rolim De Moura""",-11.72,-61.78,,8,"ROLIM DE MOURA|BRAZIL",0
157,"""Rio Do Sinos""",-11.88,-55.49,,11,"RIO DO SINOS|BRAZIL;SINOP|BRAZIL",0
158,"""Santa Barbara""",-11.94,-38.97,,8,"SANTA BARBARA|BRAZIL",0
161,"""Detachment Lima""",-12.04,-77.02,,1839,"DETACHMENT LIMA|PERU;LIMA|PERU;PONTE DE LIMA|PERU",0
166,"""Callao""",-12.05,-77.13,,32,"CALLAO|PERU;CHUCUITO CALLAO|PERU;LA PUNTA CALLAO|PERU",0
174,"""Barreiras""",-12.14,-44.99,,7,"BARREIRAS|BRAZIL",0
176,"""Nhulunbuy""",-12.18,136.77,,10,"NHULUNBUY|AUSTRALIA",0
179,"""Ctr Feira De Santana""",-12.25,-38.95,,265,"CTR FEIRA DE SANTANA|BRAZIL;FEINA DE SANTANA|BRAZIL;FEIRA DA SANTANA|BRAZIL;FEIRA DE SANTANA BAHIA|BRAZIL;FEIRA DE SANTANA|BRAZIL;FEIRA DE SANTAN|BRAZIL;FEIRA SANTAN|BRAZIL",0
183,"""Brinkin""",-12.36,130.87,,15,"BRINKIN|AUSTRALIA;TIWI|AUSTRALIA",0
184,"""Casuarina""",-12.36,130.88,,374,"CASUARINA|AUSTRALIA",0
186,"""Nightcliff""",-12.38,130.84,,9,"NIGHTCLIFF|AUSTRALIA",0
192,"""Winnellie""",-12.42,130.89,,92,"WINNELLIE|AUSTRALIA",0
193,"""Parap""",-12.43,130.84,,6,"PARAP|AUSTRALIA",0
195,"""Darwin""",-12.46,130.84,,927,"DARWIN|AUSTRALIA",0
198,"""Virginia""",-12.52,131.02,,21,"VIRGINIA|AUSTRALIA",0
208,"""Cruz Das Almas""",-12.64,-39.11,,122,"CRUZ DAS ALMAS|BRAZIL",0
210,"""Jabiru""",-12.67,132.83,,9,"JABIRU|AUSTRALIA",0
212,"""Camacari""",-12.69,-38.32,,13,"CAMACARI|BRAZIL",0
213,"""Mato Grosso Sul""",-12.69,-55.92,,24,"MATO GROSSO SUL|BRAZIL;MATO GROSSO|BRAZIL",0
215,"""Hughes""",-12.7,131.09,,5,"HUGHES|AUSTRALIA",0
216,"""Andarai""",-12.73,-41.31,,7,"ANDARAI|BRAZIL;ANDAR|BRAZIL",0
222,"""Mamoudzou""",-12.78,45.23,,6,"MAMOUDZOU|FRANCE",0
223,"""Kitwe""",-12.8,28.21,,25,"KITWE|ZAMBIA",0
224,"""Lauro De Freitas Bahia""",-12.89,-38.32,,8,"LAURO DE FREITAS BAHIA|BRAZIL;LAURO DE FREITAS|BRAZIL;LAURO FREITAS|BRAZIL",0
228,"""Antonio De Jesus""",-12.95,-39.27,,5,"ANTONIO DE JESUS|BRAZIL;SANTO ANTONIO DE JESUS|BRAZIL",0
229,"""Nazare Salvador""",-12.97,-38.5,,2621,"NAZARE SALVADOR|BRAZIL;SALVADOR|BRAZIL",0
231,"""Ndola""",-12.97,28.64,,26,"NDOLA|ZAMBIA",0
234,"""Feira Santana""",-13,-44.05,,8,"FEIRA SANTANA|BRAZIL;FIERA DE SANTANA|BRAZIL;SANTANA|BRAZIL;SANTA|BRAZIL",0
241,"""Bantyre""",-13.24,34.29,,18,"BANTYRE|MALAWI;CHICHIRI|MALAWI;EMBANGWENI|MALAWI;LIONGWE|MALAWI;LITONGWE|MALAWI;LUWINGA|MALAWI;MALAWI|CENT AFR REPUBL;ZOMBE|MALAWI",0
242,"""Cuzco""",-13.28,-72.14,,17,"CUZCO|PERU",0
249,"""Bahia""",-13.44,-41.99,,5,"BAHIA|BRAZIL;ILHEUA BAHIA|BRAZIL;LLHEUS BAHIA|BRAZIL",0
255,"""Chipata""",-13.61,32.62,,28,"CHIPATA|ZAMBIA",0
262,"""Apia""",-13.8,-171.82,,28,"APIA|WESTERN SAMOA",0
263,"""Jequie Bahia""",-13.85,-40.08,,74,"JEQUIE BAHIA|BRAZIL;JEQUIE|BRAZIL",0
264,"""Ayacucho""",-13.88,-74,,8,"AYACUCHO|PERU",0
265,"""Lilingwe""",-13.98,33.77,,246,"LILINGWE|MALAWI;LILONGWE|MALAGASY REPUBL;LILONGWE|MALAWI",0
271,"""Guanambi""",-14.2,-42.78,,5,"GUANAMBI|BRAZIL",0
272,"""Aclimacao""",-14.24,-54.38,,466,"ACLIMACAO|BRAZIL;ADVOGADO|BRAZIL;AGUAS CLAMS|BRAZIL;ALAGAOS|BRAZIL;ALFENAMG|BRAZIL;ALPHAVILLE|BRAZIL;ANDRE|BRAZIL;ARACUJA|BRAZIL;ARARAGNARA|BRAZIL;ARARAQUERA|BRAZIL;ARCAJU|BRAZIL;ARCATUBA|BRAZIL;ARCIA|BRAZIL;ARELA|BRAZIL;ASA NORTE|BRAZIL;ASA NOTRE|BRAZIL;",0
273,"""Pago Pago""",-14.27,-170.69,,27,"PAGO PAGO|AS",0
278,"""Tangara Da Serra""",-14.62,-57.51,,11,"TANGARA DA SERRA|BRAZIL;TANGARA DE SERRA|BRAZIL",0
280,"""Nova Xavantina""",-14.7,-52.33,,9,"NOVA XAVANTINA|BRAZIL",0
283,"""Ilheus Ba""",-14.78,-39.04,,238,"ILHEUS BA|BRAZIL;ILHEUS|BRAZIL;ILLHEUS|BRAZIL",0
284,"""Itabuna""",-14.78,-39.27,,38,"ITABUNA|BRAZIL;RODOVIA ILHEUS ITABUNA|BRAZIL",0
289,"""Vitoria Conquista Bahia""",-14.86,-40.83,,58,"VITORIA CONQUISTA BAHIA|BRAZIL;VITORIA DA CONQUISTA|BRAZIL;VITORIA DE CONQUISTA|BRAZIL",0
294,"""Rio Banco""",-15.22,-58.12,,80,"RIO BANCO|BRAZIL;RIO BRANCO|BRAZIL;RIO BRANC|BRAZIL;RIOBRANCO|BRAZIL",0
295,"""Pontes E Lacerda""",-15.23,-59.33,,6,"PONTES E LACERDA|BRAZIL;PONTES LACERDA|BRAZIL",0
297,"""Afaahiti""",-15.27,178.69,,25,"AFAAHITI|FR POLYNESIA;CERMES|FR POLYNESIA;FAA A|FR POLYNESIA;FAA|FR POLYNESIA;MAHAREPA|FR POLYNESIA;PAPCETE|FR POLYNESIA;PAPETOAI|FR POLYNESIA;TARAVAO|FR POLYNESIA;TOPI|FR POLYNESIA",0
299,"""Itapetinga""",-15.33,-40.28,,70,"ITAPETINGA|BRAZIL",0
300,"""Zomba""",-15.38,35.31,,74,"ZOMBA|MALAWI",0
301,"""Lusaka""",-15.4,28.28,,345,"LUSAKA|ZAMBIA",0
302,"""Santa Luzia""",-15.41,-39.3,,6,"SANTA LUZIA|BRAZIL",0
310,"""Ctr Cuiaba""",-15.59,-56.09,,354,"CTR CUIABA|BRAZIL;CUIABA MT|BRAZIL;CUIABA|BRAZIL;CUIABA|MT",0
312,"""Planaltina""",-15.62,-47.65,,136,"PLANALTINA|BRAZIL;PLANANTINA|BRAZIL;PLANATINA|BRAZIL;PLANLTINA|BRAZIL",0
313,"""Sobradinho""",-15.63,-47.82,,5,"SOBRADINHO|BRAZIL",0
316,"""Varzea Grande""",-15.65,-56.13,,10,"VARZEA GRANDE|BRAZIL",0
320,"""Asa Norte Brasilia Dist""",-15.77,-47.92,,4028,"ASA NORTE BRASILIA DIST|BRAZIL;ASA NORTE BRASILIA|BRAZIL;BL E BRASILIA|BRAZIL;BRASILIA|BRAZIL;BRASILLIA|BRAZIL;NORTE BRASILIA|BRAZIL;SUDOESTE BRASILIA|BRAZIL",0
321,"""Kununurra Western""",-15.77,128.73,,13,"KUNUNURRA WESTERN|AUSTRALIA;KUNUNURRA|AUSTRALIA",0
323,"""Blantyre""",-15.79,34.99,,368,"BLANTYRE|MALAWI;CHICHIRI BLANTYRE|MALAWI",0
324,"""Nova Porteirinha""",-15.8,-43.3,,8,"NOVA PORTEIRINHA|BRAZIL",0
325,"""Janauba""",-15.8,-43.31,,22,"JANAUBA|BRAZIL",0
329,"""Taguatinga Norte""",-15.83,-48.05,,52,"TAGUATINGA NORTE|BRAZIL;TAGUATINGA SUL|BRAZIL;TAGUATINGA|BRAZIL",0
338,"""Sao Sebastiao""",-15.89,-47.78,,17,"SAO SEBASTIAO|BRAZIL;SAO SEBASTIO|BRAZIL",0
341,"""Pontal Araguaia Mt""",-15.91,-52.26,,29,"PONTAL ARAGUAIA MT|BRAZIL;PONTAL ARAGUAIA|BRAZIL;PONTAL DO ARAGUAIA|BRAZIL;PONTAL DO ARGUAIA|BRAZIL",0
342,"""Goias""",-15.92,-50.17,,22,"GOIAS|BRAZIL;GOLANIA GOIAS|BRAZIL;SETOR SUL GOIANIA GOIAS|BRAZIL",0
345,"""Santa Maria""",-16.02,-48.01,,2345,"SANTA MARIA|BRAZIL;SANTA MARIE|BRAZIL",0
348,"""Caceres""",-16.07,-57.65,,21,"CACERES|BRAZIL",0
350,"""Salinas""",-16.22,-42.28,,5,"SALINAS|BRAZIL",0
352,"""Bcochabamba""",-16.28,-63.54,,5,"BCOCHABAMBA|BOLIVIA;CASILLA|BOLIVIA;COCCHABAMBA|BOLIVIA;COCHABAMA|BOLIVIA;PUNTITI NORTE|BOLIVIA",0
354,"""Analpolis""",-16.32,-48.95,,47,"ANALPOLIS|BRAZIL;ANAPOLIS|BRAZIL",0
355,"""Aqp""",-16.32,-71.59,,15,"AQP|PERU;AREQUIPA|PERU;VALLECITO AREQUIPA|PERU",0
357,"""Eunapolis""",-16.37,-39.57,,5,"EUNAPOLIS|BRAZIL",0
360,"""Rondonopolis""",-16.46,-54.62,,11,"RONDONOPOLIS|BRAZIL;RONDONOPOLIS|MT;RONDONPOLIS|BRAZIL",0
362,"""Sant Antonio De Goias""",-16.48,-49.3,,129,"SANT ANTONIO DE GOIAS|BRAZIL;SANTA ANTONIO DE GOIAS|BRAZIL;SANTO ANONIO GOIAS|BRAZIL;SANTO ANTONIO DE GOIAS|BRAZIL;SANTO ANTONIO DE GOLAS|BRAZIL;SANTO ANTONIO GOIAS|BRAZIL;SANTOANTONIO DE GOIAS|BRAZIL;ST ANTONIO DE GOIAS|BRAZIL;STO ANTONIO DE GOIAS|BRAZIL",0
364,"""Bol La Paz""",-16.49,-68.14,,248,"BOL LA PAZ|BOLIVIA;LA PAZ BOLIVIA|BOLIVIA;LA PAZ|BOLIVIA",0
369,"""Goiania""",-16.67,-49.25,,1334,"GOIANIA|BRAZIL",0
374,"""Montes Claros""",-16.73,-43.86,,113,"MONTES CLAROS|BRAZIL",0
376,"""Kuranda""",-16.81,145.63,,16,"KURANDA|AUSTRALIA",0
378,"""Choma""",-16.81,26.97,,11,"CHOMA|ZAMBIA",0
380,"""Kariba""",-16.86,28.61,,17,"KARIBA|ZIMBABWE",0
383,"""Cairns Qld""",-16.92,145.77,,725,"CAIRNS QLD|AUSTRALIA;CAIRNS QUEENSLAND|AUSTRALIA;CAIRNS|AUSTRALIA",0
385,"""Santa Cruz De Sierra""",-16.96,-61.14,,70,"SANTA CRUZ DE SIERRA|BOLIVIA;SANTA CRUZ SIERRA|BOLIVIA;SANTA CRUZ|BOLIVIA",0
388,"""Mareeba""",-17.01,145.42,,34,"MAREEBA|AUSTRALIA",0
391,"""Gordonvale""",-17.09,145.78,,9,"GORDONVALE|AUSTRALIA",0
392,"""Walkamin""",-17.12,145.42,,8,"WALKAMIN|AUSTRALIA",0
395,"""Paracatu""",-17.22,-46.87,,6,"PARACATU|BRAZIL",0
397,"""Bindura""",-17.23,31.3,,39,"BINDURA|ZIMBABWE",0
399,"""Atherton""",-17.26,145.47,,73,"ATHERTON|AUSTRALIA",0
400,"""Yungaburra""",-17.27,145.61,,18,"YUNGABURRA|AUSTRALIA",0
406,"""Derby""",-17.34,123.66,,18,"DERBY|AUSTRALIA;DERBY|WA",0
409,"""Chinhoyi""",-17.36,30.19,,5,"CHINHOYI|ZIMBABWE",0
410,"""Cochabamba Bolivia""",-17.38,-66.16,,83,"COCHABAMBA BOLIVIA|BOLIVIA;COCHABAMBA|BOLIVIA",0
415,"""Teixeira De Freitas""",-17.52,-39.7,,5,"TEIXEIRA DE FREITAS|BRAZIL",0
417,"""Moorea""",-17.53,-149.83,,11,"MOOREA|FR POLYNESIA;MOOREA|FRANCE",0
418,"""Papeete Tahiti""",-17.54,-149.57,,47,"PAPEETE TAHITI|FR POLYNESIA;PAPEETE TAHITI|FRANCE;PAPEETE|FR POLYNESIA",0
420,"""Mineiros""",-17.57,-52.54,,9,"MINEIROS|BRAZIL",0
421,"""Aeroport De Faaa""",-17.58,-149.56,,39,"AEROPORT DE FAAA|FR POLYNESIA;FAAA AEROPORT|FR POLYNESIA;FAAA|FR POLYNESIA;FAAA|FRANCE",0
424,"""Faaa Tahiti""",-17.69,-149.37,,30,"FAAA TAHITI|FR POLYNESIA;POLYNESIE FRANCAISE|FRANCE;TAHITI|FR POLYNESIA;TAHITI|FRANCE",0
425,"""Caravelas""",-17.71,-39.24,,11,"CARAVELAS|BRAZIL",0
427,"""Morrinhos""",-17.72,-49.1,,12,"MORRINHOS|BRAZIL",0
428,"""Port Vila""",-17.73,168.32,,42,"PORT VILA| ;PORT VILA|VANUATU",0
429,"""Mt Pleasant Harare""",-17.76,31.04,,8,"MT PLEASANT HARARE|ZIMBABWE;MT PLEASANT|ZIMBABWE",0
430,"""Rio Verde""",-17.78,-50.92,,60,"RIO VERDE|BRAZIL;RIO VERDO|BRAZIL;RIOVERDE|BRAZIL",0
431,"""Oshakati""",-17.78,15.7,,6,"OSHAKATI|NAMIBIA",0
438,"""Harare""",-17.82,31.05,,963,"HARARE|ZIMBABWE;HERARE|ZIMBABWE",0
444,"""Jatai Goias""",-17.87,-51.72,,27,"JATAI GOIAS|BRAZIL;JATAI|BRAZIL",0
446,"""Tully""",-17.93,145.93,,5,"TULLY|AUSTRALIA",0
448,"""Broome""",-17.95,122.24,,14,"BROOME|AUSTRALIA",0
455,"""Pmb Suva""",-18.12,178.43,,441,"PMB SUVA|FIJI;SUVA|FIJI",0
457,"""Catalao Go""",-18.17,-47.94,,15,"CATALAO GO|BRAZIL;CATALAO|BRAZIL",0
460,"""Aldeia""",-18.22,-55.23,,10,"ALDEIA|BRAZIL;BRAGANCA ALDEIA|BRAZIL",0
461,"""Diamantina""",-18.23,-43.61,,73,"DIAMANTINA|BRAZIL;DIAMARTINA|BRAZIL",0
463,"""Itumbiara""",-18.4,-49.2,,30,"ITUMBIARA|BRAZIL",0
464,"""Pinheiros""",-18.44,-40.25,,12,"PINHEIROS|BRAZIL",0
467,"""Marilla""",-18.46,-42.08,,5,"MARILLA|BRAZIL",0
468,"""Arica""",-18.47,-70.3,,179,"ARICA|CHILE;PATRIOTAS URUGUAYOS|CHILE;VILLA MAGISTERIO ARICA|CHILE",0
474,"""Minas Gerais""",-18.57,-45.45,,74,"MINAS GERAIS|BRAZIL",0
475,"""Patos De Minas""",-18.57,-46.51,,97,"PATOS DE MINAS|BRAZIL;PATOS MINAS|BRAZIL",0
477,"""Taylors Beach""",-18.62,146.32,,54,"TAYLORS BEACH|AUSTRALIA",0
481,"""Sao Mateus Es""",-18.71,-39.85,,18,"SAO MATEUS ES|BRAZIL;SAO MATEUS|BRAZIL",0
483,"""Ambohitsaina""",-18.77,46.85,,31,"AMBOHITSAINA|MADAGASCAR;AMBONIFAHIDRANO|MADAGASCAR;ANOSIMASINA|MADAGASCAR;CYBERJAYA|MADAGASCAR;ESPA|MADAGASCAR;FLANARANTSOA|MADAGASCAR;JALAN GOMBAK|MADAGASCAR;JOHOR|MADAGASCAR;KAJANG|MADAGASCAR;KEDAH DARUL AMAN|MADAGASCAR;KEPONG|MADAGASCAR;KOTA SAMARAHAN|",0
486,"""Chapadao Do Sul""",-18.82,-52.54,,10,"CHAPADAO DO SUL|BRAZIL;CHAPADAO SUL|BRAZIL",0
487,"""Hwange Natl Pk""",-18.83,26.51,,5,"HWANGE NATL PK|ZIMBABWE;HWANGE|ZIMBABWE",0
488,"""Governador Valadares""",-18.84,-41.95,,28,"GOVERNADOR VALADARES|BRAZIL;GOVERNADOR VA|BRAZIL",0
492,"""Antananariva""",-18.9,47.52,,277,"ANTANANARIVA|MADAGASCAR;ANTANANARIVE|MADAGASCAR;ANTANANARIVO|MADAGASCAR;ANTANANARIVO|MALAGASY REPUBL;TANANRIVE|MADAGASCAR",0
493,"""Uberlandia""",-18.91,-48.27,,1267,"UBERLANDIA|BRAZIL",0
495,"""Ituiutaba""",-18.96,-49.46,,19,"ITUIUTABA|BRAZIL",0
496,"""Mutare""",-18.98,32.65,,15,"MUTARE|ZIMBABWE",0
497,"""Corumba""",-19,-57.65,,54,"CORUMBA|BRAZIL",0
500,"""Ascot""",-19.01,29.14,,60,"ASCOT|ZIMBABWE;BELTMONT|ZIMBABWE;BIDURA|ZIMBABWE;BORROWDALE|ZIMBABWE;CAUSEWAY|ZIMBABWE;FAMONA|ZIMBABWE;HARAR|ZIMBABWE;NDOLA|ZIMBABWE;PAULINGTON|ZIMBABWE;SENGA|ZIMBABWE",0
503,"""Sucre""",-19.04,-65.25,,5,"SUCRE|BOLIVIA",0
504,"""Cassilandia""",-19.1,-51.74,,11,"CASSILANDIA|BRAZIL",0
509,"""Rio Paranaiba""",-19.19,-46.24,,12,"RIO PARANAIBA|BRAZIL",0
514,"""Townsville Mail Ctr""",-19.25,146.82,,3372,"TOWNSVILLE MAIL CTR|AUSTRALIA;TOWNSVILLE MC|AUSTRALIA;TOWNSVILLE|AUSTRALIA",0
516,"""Garbutt""",-19.26,146.76,,5,"GARBUTT|AUSTRALIA",0
519,"""Aitkenvale""",-19.29,146.76,,126,"AITKENVALE|AUSTRALIA",0
523,"""Thuringowa Central""",-19.31,146.72,,12,"THURINGOWA CENTRAL|AUSTRALIA;THURINGOWA CENT|AUSTRALIA;THURINGOWA|AUSTRALIA",0
527,"""Linhares""",-19.39,-40.06,,14,"LINHARES|BRAZIL",0
528,"""Gweru""",-19.45,29.81,,23,"GWERU|ZIMBABWE",0
529,"""Ipatinga""",-19.46,-42.53,,21,"IPATINGA|BRAZIL",0
531,"""Sete Lagoas""",-19.46,-44.24,,63,"SETE LAGOAS|BRAZIL;SETE LOGOAS|BRAZIL;STETE LAGOAS|BRAZIL",0
535,"""Coronel Fabriciano""",-19.51,-42.62,,7,"CORONEL FABRICIANO|BRAZIL",0
538,"""Colatina""",-19.53,-40.63,,6,"COLATINA|BRAZIL",0
539,"""Timoteo""",-19.54,-42.64,,12,"TIMOTEO|BRAZIL",0
542,"""Ayr""",-19.57,147.4,,6,"AYR|AUSTRALIA",0
546,"""Pedro Leopoldo""",-19.61,-44.03,,10,"PEDRO LEOPOLDO|BRAZIL",0
547,"""Itabira""",-19.63,-43.22,,8,"ITABIRA|BRAZIL",0
553,"""Uberaba Mg""",-19.72,-47.91,,300,"UBERABA MG|BRAZIL;UBERABA MINAS GERAIS|BRAZIL;UBERABA|BRAZIL",0
558,"""Caratinga""",-19.79,-42.13,,8,"CARATINGA|BRAZIL",0
560,"""Aracruz""",-19.81,-40.27,,9,"ARACRUZ|BRAZIL",0
561,"""Beira""",-19.82,34.85,,8,"BEIRA|MOZAMBIQUE",0
562,"""S Atildeo Paulo""",-19.83,-43.88,,75,"S ATILDEO PAULO|BRAZIL;SAO PAULO CITY|BRAZIL;SAO PAULO|CA;SO PAULO|BRAZIL;SOA PAULO|BRAZIL",0
566,"""Antsirabe""",-19.86,47.03,,7,"ANTSIRABE|MADAGASCAR",0
567,"""Ipanema""",-19.87,-41.72,,8,"IPANEMA|BRAZIL",0
571,"""Bandeirantes""",-19.91,-54.36,,10,"BANDEIRANTES|BRAZIL",0
574,"""Santa Teresa""",-19.93,-40.59,,13,"SANTA TERESA|BRAZIL",0
575,"""Central Queensland Mail""",-19.93,145.77,,25,"CENTRAL QUEENSLAND MAIL|AUSTRALIA;QUEENSLAND|AUSTRALIA;QUEENSLAND|AUSTRIA",0
576,"""Bela Horizonte""",-19.94,-43.93,,8505,"BELA HORIZONTE|BRAZIL;BELO HORIZNONTE|BRAZIL;BELO HORIZONTE|BRAZIL;BELOHORIZONTE|BRAZIL;PAMPULHA BELO HORIZONTE|BRAZIL",0
577,"""Betim""",-19.94,-44.13,,16,"BETIM|BRAZIL",0
581,"""Contagem""",-19.96,-44.02,,7,"CONTAGEM|BRAZIL",0
583,"""Nova Lima""",-19.98,-43.84,,31,"NOVA LIMA|BRAZIL",0
586,"""Maun""",-19.99,23.42,,71,"MAUN|BOTSWANA",0
589,"""Guayaguil""",-2.2,-79.89,,180,"GUAYAGUIL|ECUADOR;GUAYAQUIL|ECUADOR;URDESA GUAYAQUIL|ECUADOR",0
596,"""Mwanza""",-2.51,32.88,,38,"MWANZA|TANZANIA",0
597,"""S Luis""",-2.53,-44.3,,301,"S LUIS|BRAZIL;SAO LUIS|BRAZIL",0
601,"""S Luis Ma""",-2.55,-44.33,,9,"S LUIS MA|BRAZIL;SAO LUIS MARANHAO|BRAZIL;SAO LUIS MA|BRAZIL;SAO LUIZ DO MARANHAO|BRAZIL;SAO LUIZ|MA",0
604,"""Butare""",-2.6,29.73,,23,"BUTARE|RWANDA;RWA BUTARE|RWANDA",0
611,"""Cuenca""",-2.89,-79.01,,27,"CUENCA|ECUADOR",0
613,"""Parnaiba""",-2.9,-41.77,,20,"PARNAIBA|BRAZIL;RIO PARNAIBA|BRAZIL",0
623,"""Bambui""",-20.02,-45.94,,8,"BAMBUI|BRAZIL",0
626,"""Itauna""",-20.07,-44.57,,8,"ITAUNA|BRAZIL",0
627,"""Charters Towers""",-20.07,146.26,,34,"CHARTERS TOWERS|AUSTRALIA",0
628,"""Masvingo""",-20.07,30.82,,6,"MASVINGO|ZIMBABWE",0
630,"""Outjo""",-20.1,16.15,,5,"OUTJO|NAMIBIA",0
631,"""Divinopolis""",-20.13,-44.88,,16,"DIVINOPOLIS|BRAZIL",0
636,"""Port Louis""",-20.16,57.49,,9,"PORT LOUIS|MAURITIUS",0
640,"""Ascot Bulawayo""",-20.17,28.58,,97,"ASCOT BULAWAYO|ZIMBABWE;BULAWAYO|ZIMBABWE",0
641,"""Serra Orgaos""",-20.18,-40.24,,5,"SERRA ORGAOS|BRAZIL;SERRA|BRAZIL",0
642,"""Les Guibies Pailles""",-20.18,57.46,,9,"LES GUIBIES PAILLES|MAURITIUS;PAILLES|MAURITIUS",0
644,"""Iquique""",-20.21,-70.14,,79,"IQUIQUE|CHILE;OQIOQIE|CHILE",0
645,"""Moka""",-20.21,57.5,,5,"MOKA|MAURITIUS",0
649,"""Quatre Bornes""",-20.25,57.46,,10,"QUATRE BORNES|MAURITIUS",0
650,"""Belle Rive""",-20.25,57.55,,310,"BELLE RIVE|MAURITIUS;BRAS DEAU|MAURITIUS;BRITANNIA|MAURITIUS;CANDOS|MAURITIUS;LA LOUISE|MAURITIUS;LA TOUR KOENIG|MAURITIUS;LE HOCHET|MAURITIUS;LE REDUIT|MAURITIUS;LES GUIBIES|MAURITIUS;POINTE AUX PIMENTS|MAURITIUS;POINTE AUX SABLES|MAURITIUS;POINTES AUX S",0
655,"""Fernandopolis""",-20.28,-50.24,,5,"FERNANDOPOLIS|BRAZIL",0
657,"""Jucutuquara Vitoria""",-20.29,-40.3,,856,"JUCUTUQUARA VITORIA|BRAZIL;PRAIA DO CANTO VITORIA|BRAZIL;VITORIA ES|BRAZIL;VITORIA|BRAZIL",0
661,"""Vacoas""",-20.29,57.47,,5,"VACOAS|MAURITIUS",0
664,"""Venda Nova Do Imigrante""",-20.32,-41.13,,7,"VENDA NOVA DO IMIGRANTE|BRAZIL;VENDA NOVA IMIGRANDE|BRAZIL",0
665,"""Vila Velha""",-20.33,-40.29,,32,"VILA VELHA|BRAZIL;VILA VELHO|BRAZIL",0
670,"""Oura Preto""",-20.38,-43.5,,378,"OURA PRETO|BRAZIL;OURO PRETO MINAS GERAIS|BRAZIL;OURO PRETO|BRAZIL;QURO PRETO|BRAZIL;SAO JOSE DO PRETO|BRAZIL",0
671,"""Votuporanga""",-20.4,-49.99,,9,"VOTUPORANGA|BRAZIL",0
674,"""Ihla Solteira""",-20.41,-51.33,,207,"IHLA SOLTEIRA|BRAZIL;IIHA SOLTEIRA|BRAZIL;ILHA SOHEIRA|BRAZIL;ILHA SOLEIRA|BRAZIL;ILHA SOLITEIRA|BRAZIL;ILHA SOLTEIRA|BRAZIL;ILHA SOLTERIA|BRAZIL;ILHA SOLTIERA|BRAZIL;LLHA SOLTEIRA|BRAZIL",0
678,"""Campo Grade""",-20.45,-54.61,,582,"CAMPO GRADE|BRAZIL;CAMPO GRANADE|BRAZIL;CAMPO GRANDE|BRAZIL;CAMPO GRAND|BRAZIL;CTR CAMPO GRANDE|BRAZIL",0
680,"""Otjiwarongo""",-20.46,16.65,,12,"OTJIWARONGO|NAMIBIA",0
681,"""Aquidauana""",-20.47,-55.78,,32,"AQUIDAUANA|BRAZIL;AQUIDAVANA|BRAZIL",0
686,"""Franca""",-20.52,-47.39,,112,"FRANCA|BRAZIL;PAULISTA FRANCA|BRAZIL",0
687,"""Barretos""",-20.55,-48.58,,19,"BARRETOS|BRAZIL",0
695,"""Dampier""",-20.66,116.71,,6,"DAMPIER|AUSTRALIA",0
702,"""Colina""",-20.71,-48.53,,5,"COLINA|BRAZIL",0
703,"""Passos""",-20.72,-46.6,,8,"PASSOS|BRAZIL",0
709,"""Mount Isa""",-20.73,139.48,,44,"MOUNT ISA|AUSTRALIA;MT ISA QLD|AUSTRALIA;MT ISA SMELTER|AUSTRALIA;MT ISA|AUSTRALIA;PARKSIDE|AUSTRALIA",0
710,"""Esplanade""",-20.73,139.49,,5,"ESPLANADE|AUSTRALIA",0
712,"""Alegre Es""",-20.76,-41.53,,108,"ALEGRE ES|BRAZIL;ALEGRE|BRAZIL;ALEGRO|BRAZIL;JARDIM MONTE ALEGRE|BRAZIL;PROTO ALEGRE|BRAZIL;SANTA CASA PORTO ALEGRE|BRAZIL",0
715,"""Tres Lagoas""",-20.79,-51.67,,24,"TRES LAGOAS|BRAZIL",0
716,"""S Fose Rio Preto""",-20.8,-49.38,,888,"S FOSE RIO PRETO|BRAZIL;SAN JOSE RIO PRETO|BRAZIL;SAO JOSE DE RIO PRETO|BRAZIL;SAO JOSE DO RIO PREST|BRAZIL;SAO JOSE DO RIO PRETO SP|BRAZIL;SAO JOSE DO RIO PRETO|BRAZIL;SAO JOSE PRETRO|BRAZIL;SAO JOSE RIO PRESTO|BRAZIL;SAO JOSE RIO PRETO|BRAZIL",0
722,"""St Denis La Plaine""",-20.86,55.45,,53,"ST DENIS LA PLAINE|REUNION;ST DENIS MESSAGERIES|REUNION;ST DENIS MESSAGERIE|REUNION;ST DENIS MESSAG|REUNION;ST DENIS MES|REUNION;ST DENIS REUNION|FRANCE",0
723,"""Reunion""",-20.88,55.53,,6,"REUNION|REUNION",0
725,"""Saint Denis""",-20.89,55.47,,248,"SAINT DENIS|REUNION;ST DENIS|REUNION",0
736,"""Paraiso""",-21.01,-48.77,,7,"PARAISO|BRAZIL",0
745,"""Bellepierre""",-21.11,55.53,,39,"BELLEPIERRE|REUNION;ILE DE LA REUNION|FRANCE;ILE REUNION|FRANCE;MESSAG|REUNION;RAVINE DES CABRIS|REUNION;REUNION ISL|FRANCE;SINTE CLORILAE|REUNION;ST CLOTILDE|REUNION;ST DENNIS MESSAG|REUNION;STE CLOTILDE|REUNION;VEILLE SANITAIRE|REUNION",0
746,"""Muriae""",-21.12,-42.37,,5,"MURIAE|BRAZIL",0
747,"""Uba""",-21.12,-42.94,,5,"UBA|BRAZIL",0
748,"""N Mackay""",-21.12,149.18,,9,"N MACKAY|AUSTRALIA",0
750,"""Joao Del Rei""",-21.13,-44.26,,94,"JOAO DEL REI|BRAZIL;S JOAO DEL REI|BRAZIL;SAO JAO DEL REI|BRAZIL;SAO JOAA DEL REI|BRAZIL;SAO JOAO DEI REI|BRAZIL;SAO JOAO DEL REI|BRAZIL",0
754,"""Mackay""",-21.14,149.17,,68,"MACKAY|AUSTRALIA",0
757,"""Jardim Iraja Ribeirao Pr""",-21.17,-47.8,,5843,"JARDIM IRAJA RIBEIRAO PR|BRAZIL;RIBEIRAO PRETO|BRAZIL;RIBEIRIO PRETO|BRAZIL;RIBERAO PRETIO|BRAZIL;RIBERIAO PRETO|BRAZIL",0
763,"""Itaperuna""",-21.2,-41.89,,13,"ITAPERUNA|BRAZIL",0
765,"""Aracatuba""",-21.21,-50.42,,273,"ARACATUBA|BRAZIL;ARACTUBA|BRAZIL;VILA MENDONCA ARACATUBA|BRAZIL",0
767,"""Barbacena""",-21.22,-43.77,,6,"BARBACENA|BRAZIL",0
769,"""St Pierre La Reunion""",-21.22,55.57,,115,"ST PIERRE LA REUNION|FRANCE;ST PIERRE REUNION|FRANCE;ST PIERRE|REUNION",0
770,"""Centenario Lavras""",-21.24,-44.99,,1227,"CENTENARIO LAVRAS|BRAZIL;LAVRAS|BRAZIL",0
771,"""Amsterdam""",-21.24,165.5,,12,"AMSTERDAM|NEW CALEDONIA;ANSE VATA|NEW CALEDONIA;MOSGIEL|NEW CALEDONIA;MT DORE|NEW CALEDONIA;NEW CALEDONIA|FRANCE;NEW CALEDONIA|NEW CALEDONIA;NOUMA|NEW CALEDONIA",0
772,"""Campus De Jaboticabal""",-21.25,-48.32,,1153,"CAMPUS DE JABOTICABAL|BRAZIL;CAMPUS JABOTICABAL|BRAZIL;CAMPUS OF JABOTICABAL|BRAZIL;JABOTICABAL SAO PAULO|BRAZIL;JABOTICABAL|BRAZIL;JABOTICALBAL|BRAZIL",0
774,"""Etang Sale Bains""",-21.25,55.36,,5,"ETANG SALE BAINS|REUNION;ETANG SALE|FRANCE;ETANG SALE|REUNION",0
779,"""Le Tampon""",-21.28,55.51,,14,"LE TAMPON|FRANCE;LE TAMPON|REUNION",0
786,"""Saint Pierre""",-21.34,55.46,,5,"SAINT PIERRE|REUNION",0
793,"""Alfenas""",-21.42,-45.94,,166,"ALFENAS|BRAZIL",0
798,"""Dracena""",-21.47,-51.53,,14,"DRACENA|BRAZIL",0
806,"""Varginha""",-21.55,-45.43,,10,"VARGINHA|BRAZIL",0
807,"""Vila Clementino""",-21.56,-50.44,,5,"VILA CLEMENTINO|BRAZIL",0
814,"""Adamantina""",-21.67,-51.06,,10,"ADAMANTINA|BRAZIL",0
815,"""Lins""",-21.68,-49.74,,11,"LINS|BRAZIL",0
817,"""Tres Coracoes""",-21.7,-45.26,,22,"TRES CORACOES|BRAZIL",0
822,"""Campo Dos Goytacazes""",-21.75,-41.32,,639,"CAMPO DOS GOYTACAZES|BRAZIL;CAMPOS COYTACAZES|BRAZIL;CAMPOS DES GOYTACAZES|BRAZIL;CAMPOS DOS GOTTACAZES|BRAZIL;CAMPOS DOS GOYTACAZAS|BRAZIL;CAMPOS DOS GOYTACAZCA|BRAZIL;CAMPOS DOS GOYTACAZES RJ|BRAZIL;CAMPOS DOS GOYTACAZESL|BRAZIL;CAMPOS DOS GOYTACAZES|BR",0
823,"""Horto Rio De Janeiro""",-21.76,-41.29,,11,"HORTO RIO DE JANEIRO|BRAZIL;HORTO|BRAZIL",0
824,"""Bairro Martelos Juiz For""",-21.76,-43.34,,823,"BAIRRO MARTELOS JUIZ FOR|BRAZIL;JUIS DE FORA|BRAZIL;JUIZ DE FOR A|BRAZIL;JUIZ DE FORA|BRAZIL;JUIZ DE FORZA|BRAZIL;JUIZ FOR A|BRAZIL;JUIZ FORA|BRAZIL;JUIZ FOR|BRAZIL;UIZ DE FORA|BRAZIL",0
828,"""Pocos Caldas""",-21.78,-46.56,,28,"POCOS CALDAS|BRAZIL;POCOS DE CALDAS|BRAZIL",0
829,"""Araaraquara""",-21.79,-48.17,,1761,"ARAARAQUARA|BRAZIL;ARARAQUARA SAO PAULO|BRAZIL;ARARAQUARA SP|BRAZIL;ARARAQUARA|BRAZIL;ARARAQUARRA|BRAZIL;ARARARQUARA|BRAZIL;ARARQUARA|BRAZIL;ARRARAQUARA|BRAZIL;MELHADO ARARAQUARA|BRAZIL",0
836,"""Caldas""",-21.93,-46.42,,8,"CALDAS|BRAZIL;POVOS DE CALDAS|BRAZIL",0
841,"""Sao Joao Boa Vosta""",-21.96,-46.79,,14,"SAO JOAO BOA VOSTA|BRAZIL;SAO JOAO DA BOA VISTA|BRAZIL;SAO JOAO DA BOA|BRAZIL",0
842,"""Pirassuminga""",-21.99,-47.42,,336,"PIRASSUMINGA|BRAZIL;PIRASSUMUNGA|BRAZIL;PIRASSUNGA|BRAZIL;PIRASSUNINGA|BRAZIL;PIRASSUNUGA|BRAZIL;PIRASSUNUNGA|BRAZIL;PIRASSUNUNGA|PR;PIRASSUNUNGRA|BRAZIL;PIRASSUNUNG|BRAZIL",0
843,"""Campus De Sao Carlos""",-22.01,-47.89,,6068,"CAMPUS DE SAO CARLOS|BRAZIL;S CARLOS|BRAZIL;SAO ""CARLOS|BRAZIL;SAO CARLOS|BRAZIL;SO CARLOS|BRAZIL",0
845,"""Liberdade""",-22.04,-44.29,,7,"LIBERDADE|BRAZIL",0
846,"""Jose Rio Preto""",-22.05,-43.79,,26,"JOSE RIO PRETO|BRAZIL;RIO PRETO|BRAZIL;S J RIO PRETO|BRAZIL;S P RIO PRETO|BRAZIL;SAO CARLOS DO RIO PRETO|BRAZIL;SAO JOSE DI RIO PRETO|BRAZIL;SAO JOSE DO RIO PRESTO|BRAZIL;SAO JOSE DO RIO PRETO CI|BRAZIL;SAO JOSE DO RIO PRETO SA|BRAZIL;SAO JOSE RIO DO RIO ",0
849,"""Bela Vista""",-22.07,-56.51,,9,"BELA VISTA|BRAZIL",0
850,"""Paita""",-22.08,166.26,,6,"PAITA|FRANCE;PAITA|NEW CALEDONIA",0
856,"""Em Presidente Prudente""",-22.12,-51.38,,195,"EM PRESIDENTE PRUDENTE|BRAZIL;PREIDENTE PRUDENTE|BRAZIL;PRESIDENT PRUDENTE|BRAZIL;PRESIDENTE PRUDENTE SAO|BRAZIL;PRESIDENTE PRUDENTE|BRAZIL;PRESIDENTE PRUDENT|BRAZIL;PRESIDNETE PRUDENTE|BRAZIL",0
861,"""Esparito Santo Do Pinhal""",-22.19,-46.74,,5,"ESPARITO SANTO DO PINHAL|BRAZIL;ESPIRITO SANTO DO PINHAL|BRAZIL",0
865,"""Marilia City""",-22.22,-49.94,,113,"MARILIA CITY|BRAZIL;MARILIA|BRAZIL",0
866,"""Dourados Ms""",-22.22,-54.8,,185,"DOURADOS MS|BRAZIL;DOURADOS|BRAZIL;DOURADOS|MS;RODOVIA DOURADOS|BRAZIL",0
867,"""Pouso Alegre""",-22.23,-45.93,,24,"POUSO ALEGRE|BRAZIL;POUSO ALERGRE|BRAZIL",0
870,"""Santa Rita Do Sapucai""",-22.26,-45.66,,9,"SANTA RITA DO SAPUCAI|BRAZIL;SANTA RITA SAPUCAI|BRAZIL;STA RITA DO SAPUCAI|BRAZIL",0
871,"""Nova Friburbo""",-22.28,-42.53,,90,"NOVA FRIBURBO|BRAZIL;NOVA FRIBURGO|BRAZIL;NOVA FRIGURGO|BRAZIL;NOVA FRIOBURGO|BRAZIL;NOVO FRIBURGO|BRAZIL",0
872,"""Brotas""",-22.28,-48.12,,5,"BROTAS|BRAZIL",0
876,"""Jau Sao Paulo""",-22.29,-48.56,,36,"JAU SAO PAULO|BRAZIL;JAU|BRAZIL;REG JAU|BRAZIL;RODOVIA ARARAQUARA JAU|BRAZIL",0
877,"""Noumea""",-22.3,166.43,,430,"NOUMEA|FRANCE;NOUMEA|NEW CALEDONIA",0
880,"""Bauro""",-22.31,-49.06,,798,"BAURO|BRAZIL;BAURU CITY|BRAZIL;BAURU SP|BRAZIL;BAURU|ARGENTINA;BAURU|BRAZIL;CORACAO BAURU|BRAZIL;VILA UNIV BAURU|BRAZIL",0
884,"""Gabarone""",-22.34,24.68,,7,"GABARONE|BOTSWANA;GABONNE|BOTSWANA;GABOONE|BOTSWANA;GAMBORONE|BOTSWANA;GARBORNE|BOTSWANA;MANN|BOTSWANA;NORTH|BOTSWANA;SEXAXA|BOTSWANA",0
886,"""Araras""",-22.35,-47.38,,51,"ARARAS|BRAZIL",0
889,"""Imboacica Macae""",-22.37,-41.78,,28,"IMBOACICA MACAE|BRAZIL;MACAE|BRAZIL",0
890,"""Mogi Guacu""",-22.37,-46.94,,12,"MOGI GUACU|BRAZIL",0
894,"""Vassouras Rio De Janeiro""",-22.4,-43.66,,6,"VASSOURAS RIO DE JANEIRO|BRAZIL;VASSOURAS|BRAZIL",0
895,"""Teresopolis""",-22.41,-42.96,,26,"TERESOPOLIS|BRAZIL",0
902,"""Paraguacu Paulista""",-22.41,-50.59,,8,"PARAGUACU PAULISTA|BRAZIL",0
904,"""Itajuba""",-22.42,-45.45,,220,"ITAJUBA|BRAZIL;RODOVIA ITAJUBA|BRAZIL",0
906,"""Mogi Mirim""",-22.43,-46.95,,16,"MOGI MIRIM|BRAZIL;MOJI MIRIM|BRAZIL",0
908,"""Gobabis""",-22.44,18.98,,5,"GOBABIS|NAMIBIA",0
912,"""Resende""",-22.47,-44.45,,19,"RESENDE|BRAZIL",0
914,"""Cordeiropolis""",-22.48,-47.45,,44,"CORDEIROPOLIS|BRAZIL",0
918,"""Jd Petropolis""",-22.5,-43.18,,249,"JD PETROPOLIS|BRAZIL;PETROPOLIS|BRAZIL;PETROPOLLIS|BRAZIL;PETRPOLIS|BRAZIL;QUITANDINHA PETROPOLIS|BRAZIL",0
919,"""Volta Redonda""",-22.5,-44.09,,89,"VOLTA REDONDA|BRAZIL",0
924,"""Windhoek""",-22.52,17.04,,175,"WINDHOEK|NAMIBIA",0
931,"""City Windhoek""",-22.55,17.08,,5,"CITY WINDHOEK|NAMIBIA;WINDHOCK|NAMIBIA",0
932,"""Limeira""",-22.56,-47.4,,34,"LIMEIRA|BRAZIL",0
934,"""Klein Windhoek""",-22.56,17.09,,21,"KLEIN WINDHOEK|NAMIBIA",0
946,"""Cachoeira Paulista""",-22.66,-45,,78,"CACHOEIRA PAULISTA|BRAZIL",0
947,"""Assis Sp""",-22.66,-50.4,,63,"ASSIS SP|BRAZIL;ASSIS|BRAZIL;ASSIZ|BRAZIL",0
949,"""Swakopmund""",-22.67,14.52,,37,"SWAKOPMUND|NAMIBIA",0
950,"""Monte Alegre Do Sul""",-22.68,-46.68,,8,"MONTE ALEGRE DO SUL|BRAZIL",0
954,"""Jaguariuna""",-22.7,-46.98,,110,"JAGUARIUNA|BRAZIL",0
958,"""Rio Clara""",-22.72,-44.12,,795,"RIO CLARA|BRAZIL;RIO CLARO|BRAZIL;RIO CLAR|BRAZIL",0
960,"""Lorena""",-22.72,-45.12,,456,"LORENA|BRAZIL",0
961,"""Areiao Piracicaba""",-22.72,-47.64,,2527,"AREIAO PIRACICABA|BRAZIL;PARACICABA|BRAZIL;PIRACCIABA|BRAZIL;PIRACIBABA|BRAZIL;PIRACICABA SAO PAULO|BRAZIL;PIRACICABA SP|BRAZIL;PIRACICABA|BRAZIL;PIRACICABE|BRAZIL;PIRACICABO|BRAZIL;PIRACICA|BRAZIL;PIRACICCAB|BRAZIL;PIRACICOBA|BRAZIL;PIRACICUBA|BRAZIL;PIR",0
964,"""Americana""",-22.73,-47.33,,10,"AMERICANA|BRAZIL",0
966,"""Seropedia""",-22.74,-43.7,,660,"SEROPEDIA|BRAZIL;SEROPEDICA|BRAZIL;SEROPED|BRAZIL",0
967,"""Campus Toledo""",-22.74,-46.37,,97,"CAMPUS TOLEDO|BRAZIL;TOLEDO|BRAZIL",0
969,"""Ctr Nova Iguacu""",-22.75,-43.45,,8,"CTR NOVA IGUACU|BRAZIL;NOVA IGUACU|BRAZIL",0
970,"""Santa Barbara Doeste""",-22.75,-47.41,,17,"SANTA BARBARA DOESTE|BRAZIL;SANTA BARBARA OESTE|BRAZIL",0
973,"""Itapeva""",-22.76,-46.22,,16,"ITAPEVA|BRAZIL",0
974,"""Paulinia""",-22.76,-47.14,,8,"PAULINIA|BRAZIL",0
978,"""Duque Caxias""",-22.78,-43.31,,42,"DUQUE CAXIAS|BRAZIL;DUQUE DE CAXIAS|BRAZIL",0
979,"""Nova Odessa""",-22.78,-47.29,,27,"NOVA ODESSA|BRAZIL",0
980,"""Sao Goncalo""",-22.79,-43.03,,11,"SAO GONCALO|BRAZIL",0
983,"""Nilopolis""",-22.8,-43.41,,10,"NILOPOLIS|BRAZIL",0
985,"""Guaratinguesta""",-22.81,-45.19,,204,"GUARATINGUESTA|BRAZIL;GUARATINGUETA SP|BRAZIL;GUARATINGUETA|BRAZIL;GUARATINGUTA|BRAZIL;GUARITINGUETA|BRAZIL",0
986,"""Sumare""",-22.82,-47.26,,5,"SUMARE|BRAZIL",0
990,"""Itaguai""",-22.85,-43.77,,5,"ITAGUAI|BRAZIL",0
991,"""Hortolandia""",-22.85,-47.21,,5,"HORTOLANDIA|BRAZIL",0
996,"""Cabo Frio""",-22.87,-42.02,,7,"CABO FRIO|BRAZIL",0
1001,"""Ctr Niteroi""",-22.88,-43.1,,1978,"CTR NITEROI|BRAZIL;NITEROI|BRAZIL",0
1003,"""Manguinho""",-22.88,-43.25,,17,"MANGUINHO|BRAZIL",0
1007,"""Brazil Campinas""",-22.89,-47.16,,5,"BRAZIL CAMPINAS|BRAZIL;CAMPINAS|MD;UNICAMP|BRAZIL",0
1008,"""Botucadu""",-22.89,-48.45,,2265,"BOTUCADU|BRAZIL;BOTUCATO|BRAZIL;BOTUCATU|BRAZIL;CAMPUS DE BOTUCATU|BRAZIL",0
1011,"""Campinas""",-22.9,-47.06,,12637,"CAMPINAS|BRAZIL;JARDIM IPAUSSURAMA CAMPI|BRAZIL",0
1012,"""Centro Rio De Janeiro""",-22.91,-43.18,,5,"CENTRO RIO DE JANEIRO|BRAZIL;CENTRO|BRAZIL",0
1017,"""Pindamonhangaba""",-22.92,-45.46,,10,"PINDAMONHANGABA|BRAZIL;PINDARNONHANGABA|BRAZIL",0
1022,"""Botafogo""",-22.95,-43.18,,6,"BOTAFOGO|BRAZIL",0
1025,"""Braganca Paulista""",-22.95,-46.54,,131,"BRAGANCA PAULISTA|BRAZIL;BRAGANCE PAULISTA|BRAZIL;IATE CLUBE DE AMER AMER|BRAZIL",0
1026,"""Walvis Bay""",-22.95,14.52,,5,"WALVIS BAY|NAMIBIA",0
1027,"""Arraial Do Cabo""",-22.96,-42.02,,16,"ARRAIAL DO CABO|BRAZIL",0
1029,"""Tremembe""",-22.96,-45.54,,7,"TREMEMBE|BRAZIL",0
1030,"""Valinhos""",-22.96,-47,,7,"VALINHOS|BRAZIL",0
1031,"""San Pedro De Atacama""",-22.96,-68.16,,18,"SAN PEDRO DE ATACAMA|CHILE",0
1033,"""Bachbrecht""",-22.96,18.48,,7,"BACHBRECHT|NAMIBIA;BOSSEY|NAMIBIA;OTIJAWARONGO|NAMIBIA;PIONEERSPARK|NAMIBIA;WINDBOEK|NAMIBIA;WINHOEK|NAMIBIA",0
1035,"""Bl J Rio De Janeiro""",-22.97,-43.19,,22231,"BL J RIO DE JANEIRO|BRAZIL;CIDADE NOVA RIO JANEIRO|BRAZIL;JANEIRO|BRAZIL;RIO DE JANEIRO|BRAZIL;RIO DE KANEIRO|BRAZIL;RIO JANEIRO|BRAZIL;RIO JANERIO|BRAZIL;RIO PRETO CITY|BRAZIL;RIO RJ|BRAZIL;RIODE JANEIRO|BRAZIL",0
1037,"""Thohoyandou""",-22.97,30.47,,128,"THOHOYANDOU|SOUTH AFRICA;THOHYANDOU|SOUTH AFRICA;THOYANDOU|SOUTH AFRICA",0
1041,"""Gavea Rio De Janeiro""",-22.99,-43.25,,14,"GAVEA RIO DE JANEIRO|BRAZIL;GAVEA|BRAZIL;RIO GAVEA|BRAZIL",0
1043,"""Angra Dos Reis""",-23,-44.31,,6,"ANGRA DOS REIS|BRAZIL;ANGRA REIS|BRAZIL",0
1044,"""Itatiba""",-23,-46.83,,94,"ITATIBA|BRAZIL",0
1048,"""Taubate""",-23.03,-45.56,,99,"TAUBATE|BRAZIL",0
1052,"""Cerqueira Cesar""",-23.04,-49.17,,6,"CERQUEIRA CESAR|BRAZIL;CERQUEIRA CEZAR|BRAZIL;CERQUEIRO CESAR|BRAZIL",0
1053,"""Louis Trichardt""",-23.04,29.9,,10,"LOUIS TRICHARDT|SOUTH AFRICA;MAKHADO|SOUTH AFRICA",0
1055,"""Paranavai""",-23.07,-52.46,,17,"PARANAVAI|BRAZIL;PARANAVAI|PR",0
1057,"""Indaiatuba""",-23.08,-47.22,,6,"INDAIATUBA|BRAZIL",0
1063,"""Atibaia""",-23.11,-46.54,,9,"ATIBAIA|BRAZIL",0
1064,"""Yeppoon""",-23.12,150.74,,6,"YEPPOON|AUSTRALIA",0
1065,"""Rockhampton Mc""",-23.13,150.67,,7,"ROCKHAMPTON MC|AUSTRALIA",0
1069,"""Cta Sao Jose Dos Campos""",-23.17,-45.88,,2052,"CTA SAO JOSE DOS CAMPOS|BRAZIL;JOSE DOS CAMPOS|BRAZIL;S JOSE CAMPOS|BRAZIL;S JOSE COMPOS|BRAZIL;SA JOSE DOS CAMPOS|BRAZIL;SAN JOSE CAMPOS|BRAZIL;SAN JOSE DOS CAMPOS|BRAZIL;SAO JOS CAMPOS|BRAZIL;SAO JOSE COMPOS|BRAZIL;SAO JOSE DO CAMPOS|BRAZIL;SAO JOSE DOS",0
1071,"""Cornelio Procopio""",-23.18,-50.64,,6,"CORNELIO PROCOPIO|BRAZIL;CORNNELIO PROCOPIO|BRAZIL",0
1072,"""Jundiai""",-23.19,-46.88,,71,"JUNDIAI|BRAZIL",0
1073,"""Jujuy""",-23.19,-65.68,,6,"JUJUY|ARGENTINA;S JUJUY|ARGENTINA;S S DE JUJUY|ARGENTINA;SS DE JUJUY|ARGENTINA",0
1086,"""Jacarei""",-23.3,-45.97,,11,"JACAREI|BRAZIL",0
1088,"""Lindrina""",-23.31,-51.16,,1685,"LINDRINA|BRAZIL;LONDRIANA|BRAZIL;LONDRINA PARANA|BRAZIL;LONDRINA PR|BRAZIL;LONDRINA|BRAZIL;LONDRINA|PR;LONDRINA|VENEZUELA;LONDRINO|BRAZIL",0
1094,"""Cajamar""",-23.35,-46.87,,10,"CAJAMAR|BRAZIL",0
1097,"""N Rockhampton""",-23.35,150.54,,9,"N ROCKHAMPTON|AUSTRALIA;NORTH ROCKHAMPTON|AUSTRALIA",0
1098,"""Toliara""",-23.35,43.66,,5,"TOLIARA|MADAGASCAR;TOLIARA|MALAGASY REPUBL",0
1100,"""Rockhampton Campus""",-23.37,150.5,,744,"ROCKHAMPTON CAMPUS|AUSTRALIA;ROCKHAMPTON|AUSTRALIA",0
1105,"""Arapongas""",-23.41,-51.42,,5,"ARAPONGAS|BRAZIL",0
1106,"""Maringa Parana""",-23.42,-51.93,,2189,"MARINGA PARANA|BRAZIL;MARINGA PR|BRAZIL;MARINGA|BRAZIL;VILA NOVA MARINGA|BRAZIL",0
1107,"""Ubatuba""",-23.43,-45.07,,13,"UBATUBA|BRAZIL",0
1108,"""Guarulhos""",-23.44,-46.5,,47,"GUARULHOS|BRAZIL;GUARULHO|BRAZIL",0
1111,"""Candido Rondon""",-23.44,-52.74,,7,"CANDIDO RONDON|BRAZIL;CANDIDO RONDON|PR;MAL CANDIDO RONDON|BRAZIL;MARECHAL C RONDON|BRAZIL",0
1112,"""Longreach""",-23.44,144.25,,6,"LONGREACH|AUSTRALIA",0
1116,"""Santa De Parnaiba""",-23.46,-46.88,,18,"SANTA DE PARNAIBA|BRAZIL;SANTA PARNAIBA|BRAZIL;SANTANA DE PARNAIBA SP|BRAZIL;SANTANA DE PARNAIBA|BRAZIL;SANTANA DO PARNAIBA|BRAZIL;SANTANA PAMAIBA|BRAZIL;SANTANA PARNAIBA|BRAZIL",0
1121,"""Osasco""",-23.5,-46.77,,24,"OSASCO|BRAZIL",0
1122,"""Barueri""",-23.5,-46.84,,7,"BARUERI|BRAZIL;BARU|BRAZIL",0
1123,"""Ctr Sorocaba""",-23.5,-47.45,,187,"CTR SOROCABA|BRAZIL;SOROCABA SP|BRAZIL;SOROCABA|BRAZIL",0
1125,"""Mogi Cruzes""",-23.52,-46.18,,135,"MOGI CRUZES|BRAZIL;MOGI DA CRUZES|BRAZIL;MOGI DAS CRUZES SP|BRAZIL;MOGI DAS CRUZES|BRAZIL;MOGI DAS CRUZE|BRAZIL;MOGI DAS CRUZ|BRAZIL",0
1126,"""Poa""",-23.52,-46.34,,15,"POA|BRAZIL",0
1132,"""Suzano""",-23.54,-46.31,,5,"SUZANO|BRAZIL;VILA SUZANA|BRAZIL",0
1139,"""Apucarana Parana""",-23.55,-51.46,,6,"APUCARANA PARANA|BRAZIL;APUCARANA|BRAZIL;APUCARANA|PR",0
1141,"""Antiga Rio Sao Paulo""",-23.56,-46.65,,44045,"ANTIGA RIO SAO PAULO|BRAZIL;REAL PARQUE SAO PAULO|BRAZIL;SAO PAOLO|BRAZIL;SAO PAULA|BRAZIL;SAO PAULO|BRAZIL;SATILDE SAO PAULO|BRAZIL",0
1143,"""Butantan""",-23.57,-46.72,,7,"BUTANTAN|BRAZIL;BUTANTA|BRAZIL",0
1145,"""Vila Mariana""",-23.59,-46.64,,6,"VILA MARIANA|BRAZIL",0
1147,"""Cotia""",-23.6,-46.92,,11,"COTIA|BRAZIL",0
1153,"""Anatofagasta""",-23.63,-70.39,,521,"ANATOFAGASTA|CHILE;ANTAFAGASTA|CHILE;ANTOFAGASTA|CHILE;ANTOFAGOSTA|CHILE;ANTOFAGUSTA|CHILE;ANTOFASAGASTA|CHILE",0
1155,"""Caetano Do Sul""",-23.64,-46.56,,62,"CAETANO DO SUL|BRAZIL;SAO CAETANO DO SUL|BRAZIL;SAO CAETANO SUL|BRAZIL",0
1158,"""Ibiuna""",-23.65,-47.22,,5,"IBIUNA|BRAZIL",0
1165,"""Diadema""",-23.69,-46.6,,42,"DIADEMA|BRAZIL",0
1166,"""Sao Bernando Do Campo""",-23.7,-46.55,,58,"SAO BERNANDO DO CAMPO|BRAZIL;SAO BERNARDO DE CAMPO|BRAZIL;SAO BERNARDO DO CAMPO|BRAZIL",0
1168,"""Alice Springs""",-23.7,133.88,,185,"ALICE SPRINGS|AUSTRALIA",0
1171,"""Umuarama""",-23.76,-53.31,,44,"UMUARAMA|BRAZIL",0
1172,"""Limpopo""",-23.77,29.14,,13,"LIMPOPO|SOUTH AFRICA",0
1180,"""Pietersburg N""",-23.9,29.45,,36,"PIETERSBURG N|SOUTH AFRICA;PIETERSBURG|SOUTH AFRICA;POLOKWANE|SOUTH AFRICA",0
1183,"""Santos""",-23.96,-46.32,,194,"SANTOS|BRAZIL;SANTO|BRAZIL;SOUZA R SANTOS|BRAZIL;VILA MATHIAS SANTOS SP|BRAZIL",0
1188,"""Campo Mourao""",-24.04,-52.38,,18,"CAMPO MOURAO|BRAZIL;CAMPO MOURAO|PR",0
1189,"""Paraje El Pozo""",-24.06,-62.49,,20,"PARAJE EL POZO|ARGENTINA",0
1192,"""Goioere""",-24.18,-53.01,,5,"GOIOERE|BRAZIL",0
1193,"""San Salvador De Jujuy""",-24.18,-65.29,,50,"SAN SALVADOR DE JUJUY|ARGENTINA",0
1197,"""Palotina""",-24.28,-53.84,,26,"PALOTINA|BRAZIL;PALOTINA|PR",0
1202,"""Biloela""",-24.4,150.51,,20,"BILOELA|AUSTRALIA",0
1206,"""Registro""",-24.48,-47.83,,26,"REGISTRO|BRAZIL",0
1208,"""Copagril Marechal Candid""",-24.55,-54.05,,52,"COPAGRIL MARECHAL CANDID|BRAZIL;MARECHAL CANDIDO RODONDO|BRAZIL;MARECHAL CDNDIDO RONDON|BRAZIL;MORECHAL CANDIDO RONDON|BRAZIL",0
1213,"""Acornhoek""",-24.59,31.06,,26,"ACORNHOEK|SOUTH AFRICA",0
1214,"""Alto""",-24.61,-51.31,,52,"ALTO|PR;CURITABA|PR;FPO|PR;GUAYNABA|PR;HUMACO|PR;MAYAGUZZ|PR;MAYANUEA|PR;MAYGUEZ|PR;PARANA|BRAZIL;PATO BARNCO|PR;PNCE|PR;PONTO GROSSA|PR;PONTO|PR;PRONCE|PR;YOUCO|PR",0
1217,"""Gaborone""",-24.65,25.91,,940,"GABORONE|BOTSWANA;GARBORONE|BOTSWANA",0
1222,"""Salta""",-24.78,-65.41,,237,"SALTA|ARGENTINA",0
1228,"""Bundaberg Dc""",-24.86,152.34,,66,"BUNDABERG DC|AUSTRALIA;BUNDABERG|AUSTRALIA",0
1231,""" """,-24.91,133.39,,979," |AUSTRALIA;ACTIN|AUSTRALIA;ADAMSTWON HTS|AUSTRALIA;ADFA|AUSTRALIA;ALTWOOD|AUSTRALIA;ANU|AUSTRALIA;ARNIDALE|AUSTRALIA;ASCOTVALE|AUSTRALIA;ATARMON|AUSTRALIA;AUCHEFLOWER|AUSTRALIA;AUCKLAND PK|AUSTRALIA;AUSTRALIAN CAPITAL TERR|AUSTRALIA;AUSTRALIAN TECHNOL PK",0
1237,"""Kanye""",-24.97,25.33,,5,"KANYE|BOTSWANA",0
1239,"""Skukuza""",-24.99,31.59,,38,"SKUKUZA|SOUTH AFRICA",0
1240,"""Cananeia""",-25.02,-47.93,,13,"CANANEIA|BRAZIL;CTR CANANEIA|BRAZIL",0
1244,"""Ponta Crossa""",-25.09,-50.16,,320,"PONTA CROSSA|BRAZIL;PONTA GROSSA PR|BRAZIL;PONTA GROSSA|BRAZIL;PONTA GROSSA|PR;PONTA GROSSO|BRAZIL;PONTA GROSS|BRAZIL;PONTO GROSSA|BRAZIL",0
1245,"""Lydenburg""",-25.09,30.45,,6,"LYDENBURG|SOUTH AFRICA",0
1247,"""Groblersdal""",-25.16,29.39,,14,"GROBLERSDAL|SOUTH AFRICA",0
1249,"""Lobatse""",-25.21,25.67,,8,"LOBATSE|BOTSWANA",0
1251,"""Dennilton""",-25.26,29.16,,8,"DENNILTON|SOUTH AFRICA",0
1252,"""Medianeira""",-25.28,-54.09,,11,"MEDIANEIRA|BRAZIL",0
1254,"""Hervey Bay""",-25.28,152.83,,7,"HERVEY BAY|AUSTRALIA;PIALBA|AUSTRALIA",0
1255,"""Colombo""",-25.29,-49.22,,42,"COLOMBO|BRAZIL",0
1257,"""Asuncion""",-25.3,-57.62,,134,"ASUNCION|PARAGUAY",0
1259,"""San Lorenzo""",-25.35,-57.51,,12,"SAN LORENZO|PARAGUAY",0
1263,"""Guarapuava""",-25.39,-51.45,,102,"GUARAPUAVA|BRAZIL;GUARAPUAWA|BRAZIL;GUARAPUVA|BRAZIL;GURAPUAVA|BRAZIL",0
1267,"""Manhica""",-25.39,32.8,,5,"MANHICA|MOZAMBIQUE",0
1275,"""Curitibal""",-25.44,-49.27,,4543,"CURITIBAL|BRAZIL;CURITIBA|BRAZIL;CURITIBIA|BRAZIL;PARANA CURITIBA|BRAZIL",0
1279,"""Irati""",-25.46,-50.65,,7,"IRATI|BRAZIL",0
1281,"""Nelspruit""",-25.47,30.97,,60,"NELSPRUIT|SOUTH AFRICA",0
1284,"""Foz Do Iguaco""",-25.51,-54.57,,16,"FOZ DO IGUACO|BRAZIL;FOZ DO IGUACU|BRAZIL;FOZ IGUACU|BRAZIL",0
1287,"""Sao Jose Dos Pinbais""",-25.53,-49.2,,23,"SAO JOSE DOS PINBAIS|BRAZIL;SAO JOSE DOS PINHAIS|BRAZIL;SAO JOSE PINHAIS|BRAZIL",0
1289,"""Foz Do Iguassu""",-25.54,-54.58,,10,"FOZ DO IGUASSU|BRAZIL;IGUASSU FALLS|BRAZIL;IGUASSU|BRAZIL",0
1291,"""Onderstepoort""",-25.54,28.13,,757,"ONDERSTEPOORT|SOUTH AFRICA",0
1292,"""Ngodwana""",-25.56,30.67,,5,"NGODWANA|SOUTH AFRICA",0
1295,"""Puerto Iguazu""",-25.6,-54.57,,6,"PUERTO IGUAZU|ARGENTINA",0
1296,"""Rosslyn""",-25.61,28.08,,15,"ROSSLYN|SOUTH AFRICA",0
1302,"""Pontal Do Parana""",-25.64,-48.46,,26,"PONTAL DO PARANA|BRAZIL",0
1304,"""Rustenburg""",-25.66,27.23,,7,"RUSTENBURG|SOUTH AFRICA",0
1312,"""Mayville""",-25.7,28.18,,27,"MAYVILLE|SOUTH AFRICA",0
1314,"""Gezina""",-25.71,28.2,,7,"GEZINA|SOUTH AFRICA",0
1315,"""Silverton""",-25.72,28.29,,14,"SILVERTON|SOUTH AFRICA",0
1316,"""Dois Vizinhos""",-25.73,-53.05,,27,"DOIS VIZINHOS|BRAZIL",0
1317,"""Queenstwood""",-25.73,28.25,,44,"QUEENSTWOOD|SOUTH AFRICA;QUEENSWOOD|SOUTH AFRICA",0
1321,"""Ifafi""",-25.74,27.9,,5,"IFAFI|SOUTH AFRICA",0
1323,"""Glen Pretoria""",-25.74,28.18,,7627,"GLEN PRETORIA|SOUTH AFRICA;PERTORIA|SOUTH AFRICA;PRETORIA|SOUTH AFRICA;TSHWANE PRETORIA|SOUTH AFRICA;TSHWANE|SOUTH AFRICA",0
1325,"""Hatfield""",-25.74,28.23,,40,"HATFIELD|SOUTH AFRICA",0
1326,"""Colbyn""",-25.74,28.24,,6,"COLBYN|SOUTH AFRICA;HATFIELD PRETORIA|SOUTH AFRICA",0
1335,"""Lynnwood Ridge""",-25.76,28.29,,14,"LYNNWOOD RIDGE|SOUTH AFRICA;LYNNWOODRIDGE|SOUTH AFRICA",0
1338,"""Pretoria N""",-25.77,27.96,,5,"PRETORIA N|SOUTH AFRICA",0
1342,"""Faerie Glen""",-25.78,28.3,,9,"FAERIE GLEN|SOUTH AFRICA",0
1346,"""Broederstroom""",-25.8,27.87,,5,"BROEDERSTROOM|SOUTH AFRICA",0
1347,"""Valhalla""",-25.8,28.14,,15,"VALHALLA|SOUTH AFRICA",0
1353,"""Mmabatho""",-25.83,25.61,,85,"MMABATHO|SOUTH AFRICA;MMABOTHO|SOUTH AFRICA",0
1354,"""Lyttelton""",-25.83,28.19,,23,"LYTTELTON|SOUTH AFRICA;LYTTOLTON|SOUTH AFRICA",0
1356,"""Centurian""",-25.84,28.15,,36,"CENTURIAN|SOUTH AFRICA;CENTURION|SOUTH AFRICA;CENTUR|SOUTH AFRICA;ZWARTSKOP CENTURION|SOUTH AFRICA",0
1359,"""Mafeking""",-25.86,25.64,,12,"MAFEKING|SOUTH AFRICA;MAFIKENG|SOUTH AFRICA",0
1360,"""Irene""",-25.86,28.21,,64,"IRENE|SOUTH AFRICA",0
1363,"""Witbank""",-25.87,29.21,,6,"WITBANK|SOUTH AFRICA",0
1368,"""Mapato""",-25.96,32.58,,189,"MAPATO|MOZAMBIQUE;MAPUTO MOCAMBIQUE|MOZAMBIQUE;MAPUTO|MOZAMBIQUE",0
1369,"""Midrand""",-25.97,28.13,,18,"MIDRAND|SOUTH AFRICA",0
1371,"""Iguazu Falls""",-26.01,-54.58,,17,"IGUAZU FALLS|ARGENTINA;IGUAZU|ARGENTINA;PUERTA IGUAZU|ARGENTINA",0
1374,"""Halfway House""",-26.01,28.11,,5,"HALFWAY HOUSE|SOUTH AFRICA",0
1375,"""Gauteng""",-26.01,28.25,,72,"GAUTENG|SOUTH AFRICA;GUATENG|SOUTH AFRICA",0
1379,"""Sunninghill""",-26.03,28.07,,11,"SUNNINGHILL|SOUTH AFRICA",0
1380,"""Chaco""",-26.04,-60.9,,12,"CHACO|ARGENTINA",0
1382,"""Bryanston""",-26.04,28.02,,37,"BRYANSTON|SOUTH AFRICA",0
1383,"""Rivonia""",-26.04,28.05,,16,"RIVONIA|SOUTH AFRICA",0
1386,"""Gallo Manor""",-26.06,28.07,,9,"GALLO MANOR|SOUTH AFRICA",0
1388,"""Francisco Beltrao""",-26.07,-53.05,,5,"FRANCISCO BELTRAO|BRAZIL",0
1397,"""Modderfontein""",-26.09,28.15,,32,"MODDERFONTEIN|SOUTH AFRICA;PO MODDERFONTEIN|SOUTH AFRICA",0
1400,"""Krugersdorp""",-26.1,27.77,,35,"KRUGERSDORP|SOUTH AFRICA;KRUGERSDROP|SOUTH AFRICA;KRUGESDORP|SOUTH AFRICA",0
1403,"""Randburg""",-26.1,28,,137,"RANDBURG|SOUTH AFRICA",0
1404,"""Sandown""",-26.1,28.05,,52,"SANDOWN|SOUTH AFRICA;SANDTON|SOUTH AFRICA",0
1408,"""Weltevreden Pk""",-26.11,27.93,,7,"WELTEVREDEN PK|SOUTH AFRICA;WELTEVREDENPARK|SOUTH AFRICA",0
1410,"""Craighall""",-26.11,28.02,,6,"CRAIGHALL|SOUTH AFRICA",0
1423,"""Northcliff""",-26.14,27.95,,5,"NORTHCLIFF|SOUTH AFRICA",0
1428,"""Sandringham""",-26.14,28.1,,16,"SANDRINGHAM|SOUTH AFRICA",0
1434,"""Canoinhas""",-26.16,-50.4,,13,"CANOINHAS|BRAZIL",0
1436,"""Formosa""",-26.16,-58.2,,8,"FORMOSA|ARGENTINA",0
1437,"""Roodepoort""",-26.16,27.86,,25,"ROODEPOORT|SOUTH AFRICA;ROODEPORT|SOUTH AFRICA",0
1440,"""Houghton Johannesburg""",-26.16,28.05,,40,"HOUGHTON JOHANNESBURG|SOUTH AFRICA;HOUGHTON|SOUTH AFRICA",0
1447,"""Parktown W""",-26.17,28.03,,200,"PARKTOWN W|SOUTH AFRICA;PARKTOWN|SOUTH AFRICA",0
1449,"""Homestead""",-26.17,28.18,,7,"HOMESTEAD|SOUTH AFRICA",0
1451,"""Gympie""",-26.18,152.65,,24,"GYMPIE|AUSTRALIA",0
1452,"""Aauckland Pk""",-26.18,28,,485,"AAUCKLAND PK|SOUTH AFRICA;AUCKLAND PARK|SOUTH AFRICA;AUCKLAND PK|SOUTH AFRICA;AUCKLANDPARK|SOUTH AFRICA;AUCKLAND|SOUTH AFRICA;AUCKLANPARK|SOUTH AFRICA",0
1460,"""Braamfontein""",-26.19,28.03,,7,"BRAAMFONTEIN|SOUTH AFRICA",0
1461,"""Doornfontein""",-26.19,28.05,,28,"DOORNFONTEIN|SOUTH AFRICA",0
1464,"""Johannesburg Wits""",-26.2,28.04,,4493,"JOHANNESBURG WITS|SOUTH AFRICA;JOHANNESBURG|SOUTH AFRICA;MARSHALL TOWN|SOUTH AFRICA;MARSHALLTOWN|SOUTH AFRICA",0
1466,"""Germiston""",-26.21,28.15,,5,"GERMISTON|SOUTH AFRICA",0
1467,"""Palo Branco""",-26.22,-52.67,,65,"PALO BRANCO|BRAZIL;PATO BRANCO|BRAZIL;PATO BRANCO|PR",0
1468,"""Maiteland""",-26.22,27.9,,1926,"MAITELAND|SOUTH AFRICA;MAITIELAND|SOUTH AFRICA;MATEILAND|SOUTH AFRICA;MATIELAND|SOUTH AFRICA;MATILAND|SOUTH AFRICA;MATIOLAND|SOUTH AFRICA;MATTIELAND|SOUTH AFRICA;MIATELAND|SOUTH AFRICA",0
1475,"""Soweto""",-26.24,27.84,,18,"SOWETO|SOUTH AFRICA",0
1476,"""Diepkloof""",-26.24,27.94,,7,"DIEPKLOOF|SOUTH AFRICA",0
1477,"""Southdale""",-26.24,28.02,,18,"SOUTHDALE|SOUTH AFRICA",0
1481,"""Springs""",-26.25,28.44,,9,"SPRINGS|SOUTH AFRICA",0
1487,"""Joinvile""",-26.3,-48.84,,188,"JOINVILE|BRAZIL;JOINVILLE SANTA CATARINA|BRAZIL;JOINVILLE|BRAZIL;JOINVILLE|SC;JONVILLE|BRAZIL;UDESC JOINVILLE|BRAZIL",0
1490,"""Lenasia""",-26.31,27.84,,28,"LENASIA|SOUTH AFRICA",0
1491,"""Mbabane""",-26.32,31.14,,12,"MBABANE|SWAZILAND",0
1493,"""Carletonville""",-26.35,27.39,,6,"CARLETONVILLE|SOUTH AFRICA;CARLTONVILLE|SOUTH AFRICA",0
1497,"""Noosa Heads Old""",-26.39,153.08,,31,"NOOSA HEADS OLD|AUSTRALIA;NOOSA HEADS|AUSTRALIA;NOOSA JUNCTION|AUSTRALIA",0
1499,"""Charleville""",-26.4,146.24,,6,"CHARLEVILLE|AUSTRALIA",0
1500,"""Noosaville""",-26.4,153.05,,10,"NOOSAVILLE|AUSTRALIA",0
1506,"""Kwaluseni""",-26.49,31.32,,62,"KWALUSENI|SWAZILAND",0
1507,"""Secunda""",-26.51,29.19,,15,"SECUNDA|SOUTH AFRICA",0
1508,"""Alingsas""",-26.51,31.46,,7,"ALINGSAS|SWAZILAND;BASEL|SWAZILAND;BONISWIL|SWAZILAND;BOTSWANA|SWAZILAND;LUCRENE|SWAZILAND;MALKERAS|SWAZILAND;NHLANGO|SWAZILAND;SWAZILAND CITY|SWAZILAND",0
1511,"""Luyengo""",-26.53,31.23,,13,"LUYENGO|SWAZILAND;PO LUYENGO|SWAZILAND",0
1512,"""Kingaroy""",-26.54,151.83,,22,"KINGAROY|AUSTRALIA",0
1513,"""Sunshine Coast""",-26.54,153.02,,14,"SUNSHINE COAST|AUSTRALIA",0
1517,"""Del Estero""",-26.57,-63.65,,7,"DEL ESTERO|ARGENTINA;SANTAIGO DEL ESTERO|ARGENTINA;SANTIAGO ESTERO|ARGENTINA;SANTIOAGO ESTERO|ARGENTINA;SGO DEL ESTERO|ARGENTINA;SGO ESTERO|ARGENTINA",0
1518,"""Roma""",-26.57,148.78,,7,"ROMA|AUSTRALIA",0
1519,"""Nambour""",-26.6,152.97,,64,"NAMBOUR|AUSTRALIA;PARKLANDS|AUSTRALIA;SCMC NAMBOUR|AUSTRALIA",0
1522,"""Maroochydore Dc""",-26.65,153.08,,187,"MAROOCHYDORE DC|AUSTRALIA;MAROOCHYDORE DIST CAPITA|AUSTRALIA;MAROOCHYDORE PC|AUSTRALIA;MAROOCHYDORE S|AUSTRALIA;MAROOCHYDORE|AUSTRALIA",0
1523,"""Cotton Tree""",-26.65,153.09,,6,"COTTON TREE|AUSTRALIA;COTTONTREE|AUSTRALIA",0
1525,"""Buderim""",-26.67,153.09,,9,"BUDERIM|AUSTRALIA",0
1526,"""Vereeniging""",-26.67,27.92,,10,"VEREENIGING|SOUTH AFRICA",0
1529,"""Mooloolaba""",-26.68,153.11,,7,"MOOLOOLABA|AUSTRALIA",0
1530,"""Vanderbijilpark""",-26.69,27.83,,75,"VANDERBIJILPARK|SOUTH AFRICA;VANDERBIJLPARKE|SOUTH AFRICA;VANDERBIJLPARK|SOUTH AFRICA;VANDERBIJLPK|SOUTH AFRICA",0
1531,"""Luderitz""",-26.7,15.9,,6,"LUDERITZ|NAMIBIA",0
1536,"""Sippy Downs""",-26.71,153.05,,16,"SIPPY DOWNS|AUSTRALIA",0
1537,"""Patchefstroom""",-26.71,27.09,,982,"PATCHEFSTROOM|SOUTH AFRICA;POTCHEFSTROOM CAMPUS|SOUTH AFRICA;POTCHEFSTROOM|SOUTH AFRICA",0
1540,"""Maleny""",-26.75,152.84,,7,"MALENY|AUSTRALIA",0
1544,"""Cacador""",-26.78,-51.02,,22,"CACADOR|BRAZIL;CACADOS|BRAZIL",0
1546,"""Caloundra Dc""",-26.79,153.12,,10,"CALOUNDRA DC|AUSTRALIA;CALOUNDRA|AUSTRALIA",0
1548,"""Yerba Buena""",-26.81,-65.3,,20,"YERBA BUENA|ARGENTINA",0
1550,"""Sasolburg""",-26.81,27.82,,238,"SASOLBURG|SOUTH AFRICA;SOSOLBURG|SOUTH AFRICA",0
1551,"""Misiones""",-26.82,-54.85,,14,"MISIONES|ARGENTINA",0
1552,"""S Miguel Tucuman""",-26.82,-65.23,,19,"S MIGUEL TUCUMAN|ARGENTINA;TUCUMAN|ARGENTINA",0
1558,"""Beerwah""",-26.85,152.95,,5,"BEERWAH|AUSTRALIA",0
1563,"""Parrow""",-26.89,27.47,,7,"PARROW|SOUTH AFRICA;PARYS|SOUTH AFRICA",0
1564,"""Itajai Sc""",-26.9,-48.66,,294,"ITAJAI SC|BRAZIL;ITAJAI|BRAZIL",0
1565,"""Blumenau Sc""",-26.91,-49.06,,106,"BLUMENAU SC|BRAZIL;BLUMENAU|BRAZIL",0
1568,"""Sargento Cabral""",-26.93,-59.52,,5,"SARGENTO CABRAL|ARGENTINA",0
1575,"""Balneario""",-26.99,-48.63,,15,"BALNEARIO|BRAZIL;CALNEARIO CAMBORIU|BRAZIL",0
1576,"""Videira""",-27,-51.15,,15,"VIDEIRA|BRAZIL",0
1578,"""Clifton Hills""",-27.02,138.88,,10,"CLIFTON HILLS|AUSTRALIA",0
1584,"""Caboolture""",-27.07,152.95,,14,"CABOOLTURE|AUSTRALIA",0
1585,"""Bribie Isl""",-27.07,153.16,,19,"BRIBIE ISL|AUSTRALIA;BRIBIE|AUSTRALIA",0
1586,"""Woorim""",-27.07,153.19,,5,"WOORIM|AUSTRALIA",0
1589,"""Chapeco""",-27.09,-52.68,,43,"CHAPECO|BRAZIL",0
1592,"""Aguas Claras Brasilia""",-27.11,-48.91,,7,"AGUAS CLARAS BRASILIA|BRAZIL;AGUAS CLARAS|BRAZIL",0
1600,"""Joacaba""",-27.17,-51.5,,61,"JOACABA|BRAZIL",0
1603,"""Deception Bay""",-27.18,153.01,,28,"DECEPTION BAY|AUSTRALIA",0
1607,"""Rio Do Sul""",-27.21,-49.64,,5,"RIO DO SUL|BRAZIL",0
1608,"""Rio Grand Do Sul""",-27.22,-49.63,,5,"RIO GRAND DO SUL|BRAZIL;RIO GRANDE SO SUL|BRAZIL;RIO GRANDE SUL|BRAZIL",0
1610,"""Redcliffe""",-27.22,153.1,,26,"REDCLIFFE|AUSTRALIA",0
1611,"""Concordia""",-27.23,-52.02,,82,"CONCORDIA|BRAZIL",0
1615,"""Crows Nest""",-27.26,152.05,,44,"CROWS NEST|AUSTRALIA",0
1620,"""Guemes""",-27.31,-65.33,,73,"GUEMES|ARGENTINA",0
1621,"""Sandgate""",-27.31,153.06,,7,"SANDGATE|AUSTRALIA",0
1625,"""Caufield East""",-27.32,153.02,,7,"CAUFIELD EAST|AUSTRALIA;CAUFIELD E|AUSTRALIA",0
1628,"""Frederico Westphalen""",-27.35,-53.39,,8,"FREDERICO WESTPHALEN|BRAZIL",0
1629,"""Carseldine""",-27.35,153.01,,123,"CARSELDINE|AUSTRALIA",0
1631,"""Posadas""",-27.36,-55.89,,80,"POSADAS|ARGENTINA",0
1632,"""Copiapo""",-27.36,-70.33,,16,"COPIAPO|CHILE",0
1638,"""Banyo""",-27.37,153.07,,9,"BANYO|AUSTRALIA",0
1643,"""Chermside""",-27.38,153.03,,101,"CHERMSIDE|AUSTRALIA",0
1653,"""Oakey""",-27.4,151.66,,11,"OAKEY|AUSTRALIA",0
1654,"""Stafford Dc""",-27.4,153,,12,"STAFFORD DC|AUSTRALIA;STAFFORD HTS|AUSTRALIA;STAFFORD|AUSTRALIA",0
1662,"""Ituporanga""",-27.42,-49.61,,6,"ITUPORANGA|BRAZIL",0
1663,"""Alderley""",-27.42,152.99,,71,"ALDERLEY|AUSTRALIA;ENOGGERA|AUSTRALIA",0
1672,"""The Gap""",-27.44,152.95,,6,"THE GAP|AUSTRALIA",0
1673,"""Ashgrove""",-27.44,152.99,,8,"ASHGROVE|AUSTRALIA",0
1674,"""Kelvin Grove Brisbane""",-27.44,153,,495,"KELVIN GROVE BRISBANE|AUSTRALIA;KELVIN GROVE|AUSTRALIA",0
1675,"""Herston""",-27.44,153.02,,1715,"HERSTON|AUSTRALIA",0
1678,"""Resistencia""",-27.45,-58.98,,36,"RESISTENCIA|ARGENTINA",0
1680,"""Bardon""",-27.45,152.98,,5,"BARDON|AUSTRALIA",0
1681,"""Fortitude Valley""",-27.45,153.03,,25,"FORTITUDE VALLEY|AUSTRALIA",0
1684,"""Fishermans Bend""",-27.45,153.06,,104,"FISHERMANS BEND|AUSTRALIA;ST FISHERMANS BEND|AUSTRALIA",0
1685,"""Cannon Hill""",-27.45,153.08,,18,"CANNON HILL|AUSTRALIA",0
1687,"""Brisbane City""",-27.46,153.02,,20594,"BRISBANE CITY|AUSTRALIA;BRISBANE|AUSTRALIA;BRISBANE|CANADA;PO HERSTON|AUSTRALIA;SPRING HILL BRISBANE|AUSTRALIA;SPRING HILL QLD|AUSTRALIA;SPRING HILL|AUSTRALIA",0
1688,"""New Farm""",-27.46,153.04,,5,"NEW FARM|AUSTRALIA",0
1691,"""Aas Corrientes""",-27.47,-58.84,,419,"AAS CORRIENTES|ARGENTINA;CORRIENTAS|ARGENTINA;CORRIENTES CAPITALE|ARGENTINA;CORRIENTES|ARGENTINA;CORRIENTE|ARGENTINA",0
1692,"""Toowong""",-27.47,152.98,,86,"TOOWONG|AUSTRALIA",0
1693,"""Auchenflower""",-27.47,152.99,,58,"AUCHENFLOWER|AUSTRALIA",0
1695,"""S Bank""",-27.47,153.01,,167,"S BANK|AUSTRALIA;S BRISBANE|AUSTRALIA;SOUTH BANK|AUSTRALIA;SOUTH BRISBANE|AUSTRALIA;SOUTHBANK|AUSTRALIA;W END|AUSTRALIA",0
1696,"""Gardens Point""",-27.47,153.03,,5,"GARDENS POINT|AUSTRALIA;KANGAROO POINT|AUSTRALIA",0
1697,"""Tingalpa Dc""",-27.47,153.12,,54,"TINGALPA DC|AUSTRALIA;TINGALPA|AUSTRALIA",0
1700,"""Highgate Hill""",-27.48,153.01,,10,"HIGHGATE HILL|AUSTRALIA",0
1701,"""Woolloongabba""",-27.48,153.03,,463,"WOOLLOONGABBA|AUSTRALIA",0
1704,"""Indooroopilly""",-27.49,152.97,,637,"INDOOROOPILLY|AUSTRALIA",0
1705,"""Taringa""",-27.49,152.98,,23,"TARINGA|AUSTRALIA",0
1706,"""St Lucia Brisbane""",-27.49,153,,6077,"ST LUCIA BRISBANE|AUSTRALIA;ST LUCIA|AUSTRALIA",0
1707,"""Buranda""",-27.49,153.03,,16,"BURANDA|AUSTRALIA",0
1708,"""Stones Corner""",-27.49,153.04,,6,"STONES CORNER|AUSTRALIA",0
1709,"""Coorparoo""",-27.49,153.06,,20,"COORPAROO|AUSTRALIA",0
1712,"""Greenslopes""",-27.5,153.05,,20,"GREENSLOPES|AUSTRALIA",0
1718,"""Yeronga""",-27.51,153,,5,"YERONGA|AUSTRALIA",0
1721,"""Pullenvale""",-27.52,152.89,,21,"PULLENVALE|AUSTRALIA",0
1724,"""Graceville""",-27.52,152.97,,11,"GRACEVILLE|AUSTRALIA",0
1725,"""Yeerongpilly""",-27.52,153.01,,58,"YEERONGPILLY|AUSTRALIA",0
1726,"""Tarragindi""",-27.52,153.04,,6,"TARRAGINDI|AUSTRALIA",0
1730,"""Jindalee""",-27.53,152.94,,6,"JINDALEE|AUSTRALIA;SINNAMON PK|AUSTRALIA",0
1731,"""Corinda""",-27.53,152.98,,9,"CORINDA|AUSTRALIA",0
1732,"""Moorooka Q""",-27.53,153.02,,70,"MOOROOKA Q|AUSTRALIA;MOOROOKA|AUSTRALIA",0
1733,"""Mt Gravatt""",-27.53,153.07,,56,"MT GRAVATT|AUSTRALIA",0
1741,"""Gatton Qld""",-27.55,152.28,,287,"GATTON QLD|AUSTRALIA;GATTON Q|AUSTRALIA;GATTON|AUSTRALIA",0
1743,"""Nathan""",-27.55,153.06,,2060,"NATHAN|AUSTRALIA",0
1745,"""Toowoomba Village Fair""",-27.56,151.95,,1063,"TOOWOOMBA VILLAGE FAIR|AUSTRALIA;TOOWOOMBA|AUSTRALIA",0
1747,"""Moggill""",-27.56,152.87,,17,"MOGGILL|AUSTRALIA",0
1748,"""Bellbowrie""",-27.56,152.88,,10,"BELLBOWRIE|AUSTRALIA",0
1749,"""Sumner Ok""",-27.56,152.93,,7,"SUMNER OK|AUSTRALIA;SUMNER PK BC|AUSTRALIA;SUMNER PK|AUSTRALIA;SUMNER|AUSTRALIA",0
1751,"""Archerfield""",-27.56,153.01,,38,"ARCHERFIELD|AUSTRALIA",0
1752,"""Coopers Plains""",-27.56,153.03,,103,"COOPERS PLAINS|AUSTRALIA",0
1757,"""Sunnybank""",-27.57,153.06,,20,"SUNNYBANK|AUSTRALIA",0
1758,"""Eight Mile Plains""",-27.57,153.08,,22,"EIGHT MILE PLAINS|AUSTRALIA",0
1761,"""Wacol""",-27.58,152.92,,139,"WACOL|AUSTRALIA",0
1765,"""Cefet""",-27.59,-48.54,,3830,"CEFET|BRAZIL;CTR FLORIANOPOLIS SC|BRAZIL;CTR FLORIANOPOLIS|BRAZIL;FLORIANOPOLIS|BRAZIL",0
1766,"""Richlands Bc""",-27.59,152.95,,36,"RICHLANDS BC|AUSTRALIA;RICHLANDS|AUSTRALIA",0
1775,"""Underwood""",-27.6,153.11,,12,"UNDERWOOD|AUSTRALIA",0
1777,"""Alto Da Serra Il Sao Jos""",-27.61,-48.62,,25,"ALTO DA SERRA IL SAO JOS|BRAZIL;BAIRRO SAO JOSE|BRAZIL;BARRIO SAO JOSE|BRAZIL;SAO JOSE|BRAZIL",0
1779,"""Ipswich Campus""",-27.61,152.76,,93,"IPSWICH CAMPUS|AUSTRALIA;IPSWICH|AUSTRALIA",0
1789,"""Erechim""",-27.63,-52.27,,158,"ERECHIM|BRAZIL;ERECHIN|BRAZIL",0
1796,"""Santa Catarina""",-27.65,-51.15,,36,"SANTA CATARINA|BRAZIL",0
1800,"""Meadowbrook""",-27.66,153.14,,118,"MEADOWBROOK|AUSTRALIA",0
1813,"""Peak Crossing""",-27.78,152.72,,13,"PEAK CROSSING|AUSTRALIA",0
1817,"""Santiago Del Estera""",-27.8,-64.26,,108,"SANTIAGO DEL ESTERA|ARGENTINA;SANTIAGO DEL ESTERO|ARGENTINA",0
1819,"""Lages Sc""",-27.81,-50.32,,202,"LAGES SC|BRAZIL;LAGES|BRAZIL",0
1826,"""Santa Rosa""",-27.87,-54.48,,6,"SANTA ROSA|BRAZIL",0
1835,"""Australia Fair""",-27.96,153.41,,497,"AUSTRALIA FAIR|AUSTRALIA;SOUTHPORT BC|AUSTRALIA;SOUTHPORT Q|AUSTRALIA;SOUTHPORT|AUSTRALIA",0
1836,"""Oranjemund""",-27.96,16.75,,10,"ORANJEMUND|NAMIBIA;ROSH PINAH|NAMIBIA",0
1839,"""Welkom""",-27.97,26.73,,14,"WELKOM|SOUTH AFRICA",0
1841,"""Ashmore""",-27.98,153.38,,5,"ASHMORE|AUSTRALIA",0
1842,"""Main Beach""",-27.98,153.42,,5,"MAIN BEACH|AUSTRALIA",0
1848,"""Bundall""",-28.01,153.4,,34,"BUNDALL|AUSTRALIA;GCMC BUNDALL|AUSTRALIA",0
1849,"""Santa Rosa""",-28.02,-65.51,,117,"SANTA ROSA|ARGENTINA;SANTA ROSE|ARGENTINA",0
1854,"""Gold Coast Campus""",-28.04,153.39,,883,"GOLD COAST CAMPUS|AUSTRALIA;GOLD COAST MAIL CENTRE|AUSTRALIA;GOLD COAST MAIL CTR|AUSTRALIA;GOLD COAST MC|AUSTRALIA;GOLD COAST|AUSTRALIA",0
1855,"""Robina""",-28.06,153.39,,29,"ROBINA|AUSTRALIA",0
1857,"""Mudgeeraba""",-28.07,153.36,,5,"MUDGEERABA|AUSTRALIA",0
1860,"""Burleigh Heads""",-28.08,153.44,,6,"BURLEIGH HEADS|AUSTRALIA",0
1866,"""Tugun""",-28.14,153.49,,16,"TUGUN|AUSTRALIA",0
1869,"""Coolangatta""",-28.16,153.53,,9,"COOLANGATTA|AUSTRALIA",0
1871,"""Tweed Heads""",-28.18,153.52,,10,"TWEED HEADS|AUSTRALIA",0
1873,"""Hlabisa""",-28.19,32.19,,10,"HLABISA|SOUTH AFRICA",0
1874,"""Warwick""",-28.21,152.03,,21,"WARWICK|AUSTRALIA",0
1875,"""Bethlehem""",-28.23,28.31,,30,"BETHLEHEM|SOUTH AFRICA",0
1878,"""Passo Fundo""",-28.26,-52.4,,264,"PASSO FUNDO|BRAZIL;PASSO FUND|BRAZIL",0
1885,"""Panambi""",-28.29,-53.49,,5,"PANAMBI|BRAZIL",0
1886,"""Citta S Angelo""",-28.3,-54.26,,12,"CITTA S ANGELO|BRAZIL;SANTO ANGELO|BRAZIL",0
1887,"""Santo Tome""",-28.3,-56.47,,47,"SANTO TOME|ARGENTINA",0
1892,"""Ijui""",-28.39,-53.91,,48,"IJUI|BRAZIL",0
1896,"""Mtubatuba""",-28.41,32.18,,47,"MTUBATUBA|SOUTH AFRICA;MUBATUBA|SOUTH AFRICA",0
1901,"""Catamarca""",-28.45,-65.75,,9,"CATAMARCA|ARGENTINA",0
1902,"""Upington""",-28.45,21.24,,5,"UPINGTON|SOUTH AFRICA",0
1903,"""Ponta Tubarao""",-28.46,-49,,50,"PONTA TUBARAO|BRAZIL;TUBARAO|BRAZIL",0
1904,""" """,-28.47,24.67,,1206," |SOUTH AFRICA;ACCRA|SOUTH AFRICA;ACOMHOEK|SOUTH AFRICA;ALGERIE|SOUTH AFRICA;AMANZIMNYAMA|SOUTH AFRICA;ANGLO COAL|SOUTH AFRICA;ANYIGBA|SOUTH AFRICA;ANZIOROAD|SOUTH AFRICA;ASHANTI|SOUTH AFRICA;ASHWOOD|SOUTH AFRICA;AUCLAND PK|SOUTH AFRICA;AUKLAND PK|SOUTH A",0
1905,"""Laguna""",-28.48,-48.78,,9,"LAGUNA|BRAZIL;MAR GROSSO LAGUNA|BRAZIL",0
1910,"""Vacaria""",-28.51,-50.92,,5,"VACARIA|BRAZIL",0
1911,"""Phuthadithjaba""",-28.51,28.82,,93,"PHUTHADITHJABA|SOUTH AFRICA;PHUTHADITJHABA|SOUTH AFRICA;PHUTHATIDJHABA|SOUTH AFRICA;PHUTHDITJHABA|SOUTH AFRICA;PHUTTHADITJHABA|SOUTH AFRICA;PHYTHADITJHABA|SOUTH AFRICA;PUTHADITJHABA|SOUTH AFRICA",0
1916,"""Goondiwindi""",-28.54,150.32,,9,"GOONDIWINDI|AUSTRALIA",0
1924,"""Cocal Do Sul""",-28.6,-49.32,,5,"COCAL DO SUL|BRAZIL",0
1931,"""Cruz Alta""",-28.63,-53.6,,20,"CRUZ ALTA|BRAZIL",0
1936,"""Rosebank""",-28.66,153.39,,5,"ROSEBANK|AUSTRALIA",0
1937,"""Criciuma""",-28.67,-49.37,,196,"CRICIUMA|BRAZIL",0
1939,"""Johnstone""",-28.68,148.55,,13,"JOHNSTONE|AUSTRALIA",0
1943,"""Kimberley""",-28.73,24.76,,27,"KIMBERLEY|SOUTH AFRICA",0
1946,"""Bentley Campus""",-28.74,153.1,,833,"BENTLEY CAMPUS|AUSTRALIA;BENTLEY DC|AUSTRALIA;BENTLEY|AUSTRALIA",0
1950,"""Anillaco La Rioja""",-28.77,-66.85,,41,"ANILLACO LA RIOJA|ARGENTINA;ANILLACO|ARGENTINA",0
1951,"""Geraldton""",-28.77,114.62,,27,"GERALDTON|AUSTRALIA",0
1953,"""Empangeni""",-28.77,31.89,,7,"EMPANGENI|SOUTH AFRICA",0
1957,"""Lismore""",-28.81,153.27,,672,"LISMORE|AUSTRALIA",0
1958,"""E Lismore""",-28.82,153.29,,8,"E LISMORE|AUSTRALIA",0
1959,"""Wollongbar""",-28.82,153.41,,57,"WOLLONGBAR|AUSTRALIA",0
1960,"""Alstonville""",-28.84,153.44,,22,"ALSTONVILLE|AUSTRALIA",0
1967,"""Eshowe""",-28.89,31.47,,9,"ESHOWE|SOUTH AFRICA",0
1968,"""Stutterheim""",-28.9,22,,6,"STUTTERHEIM|SOUTH AFRICA",0
1972,"""Kwa Zulu Natal""",-28.94,30.88,,19,"KWA ZULU NATAL|SOUTH AFRICA;KWAZULU NATAL|SOUTH AFRICA;KZN|SOUTH AFRICA",0
1983,"""Langenhovenpark""",-29.08,26.16,,6,"LANGENHOVENPARK|SOUTH AFRICA;LANGENHOVENPK|SOUTH AFRICA",0
1984,"""Gen San Martin""",-29.1,-56.92,,302,"GEN SAN MARTIN|ARGENTINA;PARTIDO GRAL SAN MARTIN|ARGENTINA;SAN MARTIN|ARGENTINA",0
1985,"""Hilton""",-29.1,26.23,,19,"HILTON|SOUTH AFRICA",0
1986,"""Bloemfontein""",-29.11,26.22,,1535,"BLOEMFONTEIN|SOUTH AFRICA;BLOEMFORTEIN|SOUTH AFRICA",0
1993,"""Itaqui""",-29.15,-56.55,,6,"ITAQUI|BRAZIL",0
1994,"""Caixias Do Sul""",-29.16,-51.17,,290,"CAIXIAS DO SUL|BRAZIL;CAXIAS DO SUL RS|BRAZIL;CAXIAS DO SUL|BRAZIL;CAXIAS SUL|BRAZIL;CAXIAX DO SUL|BRAZIL;CAXIS DO SUL|BRAZIL",0
1997,"""Bento Goncalves""",-29.17,-51.51,,53,"BENTO GONCALVES|BRAZIL;UFRGS AV BENTO GON ALVES|BRAZIL",0
2000,"""Sovenga""",-29.21,30.6,,257,"SOVENGA|SOUTH AFRICA",0
2008,"""Maseru""",-29.31,27.49,,19,"MASERU|LESOTHO",0
2010,"""Ashford""",-29.32,151.09,,13,"ASHFORD|AUSTRALIA",0
2018,"""La Rioja""",-29.41,-66.85,,31,"LA RIOJA|ARGENTINA;RIOJA|ARGENTINA",0
2022,"""Po Roma""",-29.46,27.72,,42,"PO ROMA|LESOTHO;ROMA|LESOTHO",0
2024,"""Howick""",-29.48,30.22,,24,"HOWICK|SOUTH AFRICA",0
2028,"""Bairro Dois Irmaos""",-29.58,-51.09,,7,"BAIRRO DOIS IRMAOS|BRAZIL;DOIS IRMAOS|BRAZIL",0
2029,"""Pietermaritzburg""",-29.6,30.37,,770,"PIETERMARITZBURG|SOUTH AFRICA;PIETERMARTIZBURG|SOUTH AFRICA",0
2034,"""Novo Hamburgo Rs""",-29.67,-51.12,,68,"NOVO HAMBURGO RS|BRAZIL;NOVO HAMBURGO|BRAZIL",0
2038,"""Grafton""",-29.69,152.93,,26,"GRAFTON|AUSTRALIA",0
2041,"""Mt Edgecombe""",-29.7,31.03,,69,"MT EDGECOMBE|SOUTH AFRICA",0
2042,"""Sant Cruz Do Sul""",-29.71,-52.43,,34,"SANT CRUZ DO SUL|BRAZIL;SANTA CRUZ DO SUL|BRAZIL;SANTA CRUZ SUL|BRAZIL;SANTAN CRUZ DO SUL|BRAZIL",0
2047,"""Glen Innes""",-29.73,151.73,,15,"GLEN INNES|AUSTRALIA",0
2049,"""Umhlanga Rocks""",-29.74,31.07,,11,"UMHLANGA ROCKS|SOUTH AFRICA",0
2052,"""Leopoldo""",-29.76,-51.15,,308,"LEOPOLDO|BRAZIL;S LEOPOLDO|BRAZIL;SAO LEOPOLDA|BRAZIL;SAO LEOPOLDO RS|BRAZIL;SAO LEOPOLDO|BRAZIL;SAO LEPOLDO|BRAZIL;SAP LEOPOLDO|BRAZIL",0
2055,"""Glenashley""",-29.76,31.06,,6,"GLENASHLEY|SOUTH AFRICA",0
2056,"""Uruguaiana""",-29.77,-57.07,,25,"URUGUAIANA|BRAZIL;URUGUIANA|BRAZIL",0
2057,"""Alegrete""",-29.78,-55.77,,11,"ALEGRETE|BRAZIL",0
2063,"""Pinetown""",-29.81,30.86,,6,"PINETOWN|SOUTH AFRICA",0
2067,"""Westville""",-29.83,30.92,,13,"WESTVILLE|SOUTH AFRICA",0
2068,"""Overport""",-29.83,31,,12,"OVERPORT|SOUTH AFRICA",0
2073,"""Durban N""",-29.85,31.03,,3174,"DURBAN N|SOUTH AFRICA;DURBAN|SOUTH AFRICA;GLENWOOD DURBAN KWAZULUN|SOUTH AFRICA",0
2075,"""Congelia""",-29.86,31,,468,"CONGELIA|SOUTH AFRICA;CONGELLA|SOUTH AFRICA",0
2079,"""La Serena""",-29.9,-71.25,,320,"LA SERENA|CHILE",0
2080,"""Campus Canoas""",-29.91,-51.18,,203,"CAMPUS CANOAS|BRAZIL;CANOAS|BRAZIL;UNILASALLE CANOAS|BRAZIL",0
2090,"""Coquimbo""",-29.96,-71.33,,195,"COQUIMBO|CHILE;SEDE COQUIMBO|CHILE",0
2094,"""Eldorado Do Sul""",-29.99,-51.31,,9,"ELDORADO DO SUL|BRAZIL",0
2100,"""Manaos""",-3.12,-60.02,,957,"MANAOS|BRAZIL;MANAUS|BRAZIL",0
2101,"""Sana Rita""",-3.17,-44.33,,6,"SANA RITA|BRAZIL;SANTA RITA|BRAZIL",0
2107,"""Sao Bernardo""",-3.31,-42.42,,5,"SAO BERNARDO|BRAZIL",0
2110,"""Moshi""",-3.33,37.34,,93,"MOSHI|TANZANIA",0
2113,"""Arusha""",-3.36,36.67,,77,"ARUSHA|TANZANIA",0
2114,"""Bujumbura""",-3.37,29.35,,17,"BUJUMBURA|BURUNDI;BUJUMBURA|CENT AFR REPUBL",0
2120,"""Bengkulu""",-3.59,102.38,,5,"BENGKULU|INDONESIA",0
2123,"""Kilifi""",-3.62,39.84,,271,"KILIFI|KENYA;KILIF|KENYA",0
2125,"""Campus Do Sobral""",-3.68,-40.34,,57,"CAMPUS DO SOBRAL|BRAZIL;SOBRAL|BRAZIL",0
2127,"""Foraleza""",-3.71,-38.54,,2946,"FORALEZA|BRAZIL;FORTALEZA CE|BRAZIL;FORTALEZA|BRAZIL;FOTALEZA|BRAZIL;JUIZ DE FORTA|BRAZIL",0
2130,"""Caucaia""",-3.73,-38.65,,6,"CAUCAIA|BRAZIL",0
2131,"""Iquitos""",-3.73,-73.25,,21,"IQUITOS|PERU",0
2133,"""Chapadinha""",-3.74,-43.35,,14,"CHAPADINHA|BRAZIL",0
2135,"""Amazonas""",-3.79,-64.94,,14,"AMAZONAS|BRAZIL;MANUAS AMAZONAS|BRAZIL",0
2146,"""Loja""",-3.99,-79.2,,22,"LOJA|ECUADOR",0
2153,"""Sherwood""",-30.02,153.01,,71,"SHERWOOD|AUSTRALIA",0
2154,"""Porto Alegre""",-30.03,-51.22,,10573,"PORTO ALEGRE|BRAZIL;PORTO ALFORE|BRAZIL;PORTO ALNEGRE|BRAZIL;SANTA CASA DE PORTO ALEG|BRAZIL",0
2161,"""Guaiba""",-30.11,-51.32,,6,"GUAIBA|BRAZIL",0
2163,"""Woolgoolga""",-30.11,153.19,,8,"WOOLGOOLGA|AUSTRALIA",0
2172,"""Libertadoe S Martin""",-30.22,-59.37,,9,"LIBERTADOE S MARTIN|ARGENTINA;LIBERTADOR SAN MARTIN|ARGENTINA;LIBERTADOR|ARGENTINA",0
2176,"""Coffs Harbour""",-30.29,153.11,,121,"COFFS HARBOUR|AUSTRALIA",0
2177,"""Coffs Harbour Jetty""",-30.3,153.13,,9,"COFFS HARBOUR JETTY|AUSTRALIA",0
2179,"""Narrabri""",-30.32,149.6,,122,"NARRABRI|AUSTRALIA",0
2196,"""Armidale Dc""",-30.51,151.66,,2187,"ARMIDALE DC|AUSTRALIA;ARMIDALE|AUSTRALIA",0
2199,"""Roxby Downs S""",-30.55,136.89,,18,"ROXBY DOWNS S|AUSTRALIA;ROXBY DOWNS|AUSTRALIA",0
2203,"""Ovalle Iv Region""",-30.59,-71.19,,7,"OVALLE IV REGION|CHILE;OVALLE|CHILE",0
2215,"""Port Shepstone""",-30.73,30.45,,5,"PORT SHEPSTONE|SOUTH AFRICA;PORT SHIPSTONE|SOUTH AFRICA",0
2216,"""Kalgoorlie""",-30.74,121.47,,45,"KALGOORLIE|AUSTRALIA",0
2234,"""Gladstone""",-31.01,152.95,,23,"GLADSTONE|AUSTRALIA",0
2237,"""Tamworth Cci""",-31.09,150.92,,148,"TAMWORTH CCI|AUSTRALIA;TAMWORTH|AUSTRALIA",0
2239,"""Caba""",-31.1,-60.72,,9,"CABA|ARGENTINA",0
2242,"""Calala""",-31.14,150.98,,26,"CALALA|AUSTRALIA",0
2252,"""Rafaela""",-31.25,-61.49,,52,"RAFAELA|ARGENTINA",0
2256,"""Bedford Pk""",-31.31,148.73,,1176,"BEDFORD PK|AUSTRALIA",0
2257,"""Bage""",-31.32,-54.1,,51,"BAGE|BRAZIL",0
2263,"""Salto""",-31.38,-57.95,,5,"SALTO|URUGUAY",0
2264,"""Concordia""",-31.38,-58.01,,6,"CONCORDIA|ARGENTINA",0
2268,"""Cordoba""",-31.4,-64.18,,4210,"CORDOBA|ARGENTINA",0
2270,"""San Justo""",-31.42,-62.12,,6,"SAN JUSTO|ARGENTINA",0
2271,"""Capital Federa""",-31.42,-64.18,,8,"CAPITAL FEDERA|ARGENTINA;CAPITAL|ARGENTINA",0
2273,"""Port Macquarie""",-31.42,152.9,,30,"PORT MACQUARIE|AUSTRALIA",0
2274,"""Esperanza""",-31.44,-60.92,,70,"ESPERANZA|ARGENTINA",0
2275,"""Wauchope""",-31.45,152.73,,6,"WAUCHOPE|AUSTRALIA",0
2277,"""Merredin""",-31.48,118.27,,12,"MERREDIN|AUSTRALIA",0
2279,"""Middelburg Cape""",-31.49,25,,14,"MIDDELBURG CAPE|SOUTH AFRICA;MIDDELBURG COPE|SOUTH AFRICA;MIDDELBURG EC|SOUTH AFRICA;MIDDELBURG|SOUTH AFRICA",0
2284,"""O San Juan""",-31.53,-68.51,,190,"O SAN JUAN|ARGENTINA;SAN JUAN|ARGENTINA",0
2288,"""Mthata""",-31.59,28.78,,101,"MTHATA|SOUTH AFRICA;MTHATHA|SOUTH AFRICA;UMTATA|SOUTH AFRICA;UMTATA|SOUTH KOREA;UMTAT|SOUTH AFRICA",0
2290,"""Gjc Santa Fe""",-31.63,-60.71,,1270,"GJC SANTA FE|ARGENTINA;GLN SANTA FE|ARGENTINA;SANTA FE CITY|ARGENTINA;SANTA FE|ARGENTINA;SANTA FR|ARGENTINA;SANTA TOME|ARGENTINA;SANTAFE|ARGENTINA",0
2292,"""Northam""",-31.64,116.66,,45,"NORTHAM|AUSTRALIA",0
2298,"""Tacuarembo""",-31.7,-55.98,,6,"TACUAREMBO|URUGUAY;TACUREMBO|URUGUAY",0
2299,"""Parana""",-31.72,-60.53,,59,"PARANA|ARGENTINA",0
2300,"""Joondalup""",-31.73,115.75,,473,"JOONDALUP|AUSTRALIA",0
2302,"""Pelotas""",-31.75,-52.32,,1210,"PELOTAS|BRAZIL",0
2304,"""Wanneroo""",-31.75,115.8,,31,"WANNEROO|AUSTRALIA",0
2305,"""Capao De Leao""",-31.76,-52.43,,34,"CAPAO DE LEAO|BRAZIL;CAPAO DO LEAO|BRAZIL;CAPAO LEAO|BRAZIL",0
2311,"""Hillarys""",-31.8,115.74,,12,"HILLARYS|AUSTRALIA",0
2313,"""Duncraig""",-31.81,115.76,,5,"DUNCRAIG|AUSTRALIA",0
2314,"""Oro Verde Entre Rios""",-31.82,-60.51,,18,"ORO VERDE ENTRE RIOS|ARGENTINA;ORO VERDE|ARGENTINA",0
2322,"""N Beach""",-31.86,115.75,,146,"N BEACH|AUSTRALIA;NORTH BEACH|AUSTRALIA",0
2332,"""Hawker""",-31.88,138.42,,12,"HAWKER|AUSTRALIA",0
2339,"""Yokine""",-31.9,115.85,,5,"YOKINE|AUSTRALIA",0
2344,"""Churchlands""",-31.91,115.79,,297,"CHURCHLANDS|AUSTRALIA",0
2347,"""Taree""",-31.91,152.46,,10,"TAREE|AUSTRALIA",0
2349,"""Floreat Pk""",-31.92,115.79,,50,"FLOREAT PK|AUSTRALIA;FLOREAT|AUSTRALIA",0
2350,"""Po Wembley""",-31.92,115.81,,423,"PO WEMBLEY|AUSTRALIA;WEMBLEY|AUSTRALIA",0
2352,"""N Perth""",-31.92,115.85,,8,"N PERTH|AUSTRALIA;NORTH PERTH|AUSTRALIA",0
2353,"""Mount Lawley""",-31.92,115.87,,66,"MOUNT LAWLEY|AUSTRALIA;MT LAWLEY|AUSTRALIA",0
2354,"""Maylands""",-31.92,115.89,,7,"MAYLANDS|AUSTRALIA",0
2355,"""High Wycombe""",-31.92,115.99,,6,"HIGH WYCOMBE|AUSTRALIA",0
2357,"""W Leederville""",-31.93,115.83,,7,"W LEEDERVILLE|AUSTRALIA",0
2358,"""Leederville""",-31.93,115.84,,96,"LEEDERVILLE|AUSTRALIA;W PERTH|AUSTRALIA;W PERTH|WA",0
2359,"""Ascot Pk""",-31.93,115.94,,12,"ASCOT PK|AUSTRALIA;ASCOT|AUSTRALIA",0
2360,"""Subiaco""",-31.94,115.82,,410,"SUBIACO|AUSTRALIA",0
2361,"""Northbridge""",-31.94,115.85,,22,"NORTHBRIDGE|AUSTRALIA;NORTHBRIDGE|WA",0
2363,"""Belmont""",-31.94,115.93,,72,"BELMONT|AUSTRALIA",0
2364,"""Mt Claremont""",-31.95,115.77,,21,"MT CLAREMONT|AUSTRALIA",0
2365,"""Gpo Perth""",-31.95,115.85,,8833,"GPO PERTH|AUSTRALIA;PERTH|AUSTRALIA;WELLINGTON ST PERTH|AUSTRALIA",0
2366,"""E Perth""",-31.95,115.87,,14,"E PERTH|AUSTRALIA",0
2367,"""Broken Hill""",-31.95,141.46,,20,"BROKEN HILL|AUSTRALIA",0
2371,"""Forrestfield""",-31.96,116,,31,"FORRESTFIELD|AUSTRALIA",0
2375,"""Nedlands Perth""",-31.97,115.8,,4666,"NEDLANDS PERTH|AUSTRALIA;NEDLANDS|AUSTRALIA;NEDLANDS|WA",0
2376,"""S Perth""",-31.97,115.85,,168,"S PERTH|AUSTRALIA;SOUTH PERTH|AUSTRALIA",0
2379,"""Claremont""",-31.98,115.78,,77,"CLAREMONT|AUSTRALIA;CLAREMONT|WA",0
2381,"""Crawley Perth""",-31.98,115.82,,3963,"CRAWLEY PERTH|AUSTRALIA;CRAWLEY WA|AUSTRALIA;CRAWLEY|AUSTRALIA;CRAWLEY|WA",0
2383,"""Cottesloe""",-31.99,115.75,,17,"COTTESLOE|AUSTRALIA",0
2387,"""Applecross""",-32.01,115.83,,18,"APPLECROSS|AUSTRALIA;APPLECROSS|WA",0
2389,"""Karawara""",-32.01,115.88,,28,"KARAWARA|AUSTRALIA",0
2392,"""Cannington""",-32.01,115.93,,23,"CANNINGTON|AUSTRALIA",0
2402,"""Calufield S""",-32.02,135,,5,"CALUFIELD S|AUSTRALIA;CAUFIELD S|AUSTRALIA;MANOOCHYDORE S|AUSTRALIA;S AUSTRALIA|AUSTRALIA",0
2403,"""Carreiros Rio Grande""",-32.03,-52.09,,648,"CARREIROS RIO GRANDE|BRAZIL;RIO GRADE|BRAZIL;RIO GRANDE DO SUL|BRAZIL;RIO GRANDE DU SUL|BRAZIL;RIO GRANDE NORTE|BRAZIL;RIO GRANDES|BRAZIL;RIO GRANDEX|BRAZIL;RIO GRANDE|BRAZIL;RIO GRANGE|BRAZIL",0
2405,"""Alfred Cove""",-32.03,115.81,,9,"ALFRED COVE|AUSTRALIA;MYAREE|AUSTRALIA",0
2408,"""Trangie""",-32.03,147.98,,30,"TRANGIE|AUSTRALIA",0
2409,"""E Fremantle""",-32.04,115.76,,10,"E FREMANTLE|AUSTRALIA",0
2411,"""Melville""",-32.04,115.8,,5,"MELVILLE|AUSTRALIA",0
2414,"""Scone""",-32.04,150.86,,16,"SCONE|AUSTRALIA",0
2415,"""Fremantle""",-32.05,115.74,,639,"FREMANTLE|AUSTRALIA;FREMANTLE|IL;FREMANTLE|WA",0
2419,"""Thornlie""",-32.05,115.94,,5,"THORNLIE|AUSTRALIA",0
2421,"""S Fremantle""",-32.06,115.75,,8,"S FREMANTLE|AUSTRALIA",0
2423,"""Murdoch""",-32.06,115.83,,1852,"MURDOCH|AUSTRALIA",0
2425,"""Diamantee""",-32.07,-60.61,,49,"DIAMANTEE|ARGENTINA;DIAMANTE|ARGENTINA",0
2429,"""Canning Vale S""",-32.08,115.92,,13,"CANNING VALE S|AUSTRALIA;CANNING VALE|AUSTRALIA",0
2431,"""Entre Rios""",-32.1,-59.27,,26,"ENTRE RIOS|ARGENTINA;PROVINCIA ENTRE RIOS|ARGENTINA",0
2434,"""Eastern Cape Prov""",-32.1,26.46,,20,"EASTERN CAPE PROV|SOUTH AFRICA;EASTERN CAPE|SOUTH AFRICA",0
2445,"""Forster""",-32.18,152.51,,5,"FORSTER|AUSTRALIA",0
2448,"""Salisbury""",-32.21,151.55,,175,"SALISBURY|AUSTRALIA",0
2452,"""Kwinana""",-32.24,115.81,,7,"KWINANA|AUSTRALIA",0
2453,"""Bendigo Delivery Ctr""",-32.24,140.93,,52,"BENDIGO DELIVERY CTR|AUSTRALIA;BENDIGO MAIL CTR|AUSTRALIA;BENTLEY DELIVERY CTR|AUSTRALIA;CQ MAIL CTR|AUSTRALIA;HUNTER MAIL CTR|AUSTRALIA;HUNTER REG MAIL CTR|AUSTRALIA;HUNTER REG MALL CTR|AUSTRALIA;JAMISON CTR|AUSTRALIA;MACKAY MAIL CTR|AUSTRALIA;MAKAY MAIL",0
2456,"""Dubbo""",-32.24,148.6,,48,"DUBBO|AUSTRALIA",0
2463,"""Rockingham Dc""",-32.27,115.72,,20,"ROCKINGHAM DC|AUSTRALIA;ROCKINGHAM|AUSTRALIA",0
2467,"""Paysanda""",-32.33,-58.08,,18,"PAYSANDA|URUGUAY;PAYSANDI|URUGUAY;PAYSANDU|URUGUAY",0
2470,"""Gulgong""",-32.36,149.52,,19,"GULGONG|AUSTRALIA",0
2472,"""Villa Maria""",-32.4,-63.24,,10,"VILLA MARIA|ARGENTINA",0
2475,"""Bruce""",-32.46,138.2,,85,"BRUCE|AUSTRALIA",0
2476,"""Concepcion Del Uruguay""",-32.48,-58.25,,9,"CONCEPCION DEL URUGUAY|ARGENTINA",0
2480,"""Concepc""",-32.53,-55.75,,18,"CONCEPC|URUGUAY;IGUA|URUGUAY;JULIO HERRERA Y REISSIG|URUGUAY;LAS BRUJAS|URUGUAY;LASPLACES|URUGUAY;MONTEVIDO|URUGUAY;ST LOUIS|URUGUAY;TARUAREMBO|URUGUAY;TREINTA TRES|URUGUAY;UDELAR|URUGUAY;URUGUAY|MEXICO",0
2481,"""Mandurah""",-32.53,115.72,,14,"MANDURAH|AUSTRALIA",0
2488,"""Pinjarra""",-32.6,115.85,,21,"PINJARRA|AUSTRALIA",0
2489,"""Punta Chica Victoria""",-32.61,-60.15,,34,"PUNTA CHICA VICTORIA|ARGENTINA;VICTORIA|ARGENTINA",0
2491,"""Western Cape""",-32.63,22.22,,34,"WESTERN CAPE|SOUTH AFRICA;WESTERN CAPE|SOUTH KOREA",0
2497,"""Dwellingup""",-32.71,116.06,,10,"DWELLINGUP|AUSTRALIA",0
2498,"""Rutherford""",-32.71,151.52,,9,"RUTHERFORD|AUSTRALIA",0
2500,"""Maitland""",-32.72,151.54,,10,"MAITLAND|AUSTRALIA",0
2501,"""Nelson Bay""",-32.72,152.14,,23,"NELSON BAY|AUSTRALIA",0
2511,"""Noordhoek""",-32.76,18.17,,5,"NOORDHOEK|SOUTH AFRICA",0
2514,"""Alice""",-32.78,26.84,,283,"ALICE|SOUTH AFRICA",0
2518,"""Weston""",-32.81,151.46,,263,"WESTON|AUSTRALIA",0
2526,"""Dangar""",-32.85,149.97,,19,"DANGAR|AUSTRALIA",0
2527,"""Quillota""",-32.87,-71.24,,21,"QUILLOTA|CHILE",0
2528,"""Shortland""",-32.87,151.7,,11,"SHORTLAND|AUSTRALIA",0
2530,"""Newlands""",-32.87,27.74,,138,"NEWLANDS|SOUTH AFRICA",0
2534,"""Fr Mendoza""",-32.89,-68.83,,899,"FR MENDOZA|ARGENTINA;MENDOZA|ARGENTINA",0
2536,"""Ivanhoe""",-32.89,144.29,,22,"IVANHOE|AUSTRALIA",0
2537,"""Callaghan Campus""",-32.89,151.69,,2424,"CALLAGHAN CAMPUS|AUSTRALIA;CALLAGHAN NEWCASTLE|AUSTRALIA;CALLAGHAN|AUSTRALIA;DR CALLAGHAN|AUSTRALIA",0
2538,"""Wallsend""",-32.9,151.66,,186,"WALLSEND|AUSTRALIA",0
2539,"""Waratah Newcastle""",-32.9,151.72,,157,"WARATAH NEWCASTLE|AUSTRALIA;WARATAH|AUSTRALIA",0
2546,"""New Lambton Htgs""",-32.92,151.71,,114,"NEW LAMBTON HTGS|AUSTRALIA;NEW LAMBTON HTS|AUSTRALIA;NEW LAMBTON|AUSTRALIA",0
2550,"""Calvary Mater Newcastle""",-32.92,151.77,,3602,"CALVARY MATER NEWCASTLE|AUSTRALIA;HRMC NEWCASTLE|AUSTRALIA;NEWCASTLE|AUSTRALIA",0
2551,"""Hill Crest""",-32.92,27.54,,5,"HILL CREST|SOUTH AFRICA;HILLCREST|SOUTH AFRICA",0
2553,"""Narrogin""",-32.93,117.17,,7,"NARROGIN|AUSTRALIA",0
2556,"""New Lambton Heights""",-32.93,151.68,,8,"NEW LAMBTON HEIGHTS|AUSTRALIA",0
2558,"""Cooks Hill""",-32.93,151.76,,12,"COOKS HILL|AUSTRALIA;THE JUNCTION|AUSTRALIA",0
2570,"""Rosario""",-32.96,-60.65,,1816,"ROSARIO|ARGENTINA",0
2571,"""Bangor""",-32.96,138.13,,65,"BANGOR|AUSTRALIA",0
2573,"""Warners Bay""",-32.97,151.64,,11,"WARNERS BAY|AUSTRALIA",0
2581,"""Chacras De Coria""",-33,-68.86,,10,"CHACRAS DE CORIA|ARGENTINA",0
2584,"""Saldanha""",-33,17.94,,9,"SALDANHA|SOUTH AFRICA",0
2588,"""E London""",-33.01,27.9,,75,"E LONDON|SOUTH AFRICA;EAST LONDON|SOUTH AFRICA",0
2589,"""Vina De Mar""",-33.02,-71.55,,95,"VINA DE MAR|CHILE;VINA DEL MAR ALTO|CHILE;VINA DEL MAR VALPARAISO|CHILE;VINA DEL MAR|CHILE",0
2590,"""Whyalla""",-33.02,137.57,,8,"WHYALLA|AUSTRALIA",0
2592,"""Recreo Vina Del Mar""",-33.03,-71.58,,7,"RECREO VINA DEL MAR|CHILE;RECREO|CHILE",0
2594,"""Whyalla Norrie""",-33.03,137.53,,25,"WHYALLA NORRIE|AUSTRALIA",0
2595,"""Casilda""",-33.04,-61.16,,9,"CASILDA|ARGENTINA",0
2597,"""Valaparaiso""",-33.04,-71.62,,1489,"VALAPARAISO|CHILE;VALPARAISO|CHILE;VAPARAISO|CHILE",0
2598,"""Jamison""",-33.04,150.21,,9,"JAMISON|AUSTRALIA",0
2603,"""Cooranbong""",-33.06,151.46,,15,"COORANBONG|AUSTRALIA",0
2609,"""Rio Cuarto""",-33.13,-64.36,,516,"RIO CUARTO|ARGENTINA",0
2620,"""Orange""",-33.28,149.09,,417,"ORANGE|AUSTRALIA",0
2622,"""Gob De San Luis""",-33.3,-66.33,,814,"GOB DE SAN LUIS|ARGENTINA;SAN LUIS ARGENTINA|ARGENTINA;SAN LUIS|ARGENTINA",0
2624,"""Grahamstown""",-33.31,26.53,,1663,"GRAHAMSTOWN|SOUTH AFRICA",0
2625,"""Bunbury""",-33.32,115.63,,51,"BUNBURY|AUSTRALIA",0
2627,"""San Nicolas""",-33.34,-60.22,,27,"SAN NICOLAS|ARGENTINA;SAN NICOLIS|ARGENTINA",0
2628,"""Villa Martellia""",-33.34,-61.44,,46,"VILLA MARTELLIA|ARGENTINA;VILLA MARTELLI|ARGENTINA",0
2631,"""Ourimbah""",-33.35,151.36,,160,"OURIMBAH|AUSTRALIA",0
2639,"""Vitacura Santiago""",-33.39,-70.59,,9,"VITACURA SANTIAGO|CHILE;VITACURA|CHILE",0
2644,"""Las Condes Santiago""",-33.41,-70.59,,21,"LAS CONDES SANTIAGO|CHILE;LAS CONDES|CHILE",0
2646,"""Bathurst""",-33.41,149.57,,495,"BATHURST|AUSTRALIA",0
2647,"""Wamberal""",-33.41,151.44,,9,"WAMBERAL|AUSTRALIA",0
2648,"""Providencia Santiago""",-33.42,-70.61,,15,"PROVIDENCIA SANTIAGO|CHILE;PROVIDENCIA|CHILE",0
2650,"""Independcia""",-33.42,-70.65,,11,"INDEPENDCIA|CHILE;INDEPENDENCIA W|CHILE;INDEPENDENCIA|CHILE;INDEPENDICIA|CHILE",0
2654,"""Gosford""",-33.42,151.34,,150,"GOSFORD|AUSTRALIA",0
2655,"""Casilla Santiago""",-33.43,-70.65,,15700,"CASILLA SANTIAGO|CHILE;CASTILLA SANTIAGO|CHILE;CORREO SANTIAGO|CHILE;INDEPENDENCIA SANTIAGO|CHILE;SANTIAGO CASILLA|CHILE;SANTIAGO CENTRO|CHILE;SANTIAGO CORREO|CHILE;SANTIAGO CTR|CHILE;SANTIAGO DE CHILE|CHILE;SANTIAGO DE LOS CABALLER|DOMINICAN REP;SANTIAGO",0
2660,"""Nunoa""",-33.45,-70.59,,5,"NUNOA|CHILE",0
2664,"""Macul Santiago""",-33.48,-70.59,,22,"MACUL SANTIAGO|CHILE;MACUL|CHILE",0
2669,"""Sydney S""",-33.49,138.61,,21,"SYDNEY S|AUSTRALIA",0
2687,"""Puente Alto""",-33.57,-70.58,,9,"PUENTE ALTO|CHILE",0
2693,"""Oudtshoorn""",-33.58,22.2,,11,"OUDTSHOORN|SOUTH AFRICA",0
2699,"""Hawkesbury""",-33.6,150.86,,11,"HAWKESBURY|AUSTRALIA",0
2704,"""Panorama""",-33.61,19.45,,7,"PANORAMA|SOUTH AFRICA",0
2708,"""Avalon""",-33.62,151.33,,5,"AVALON|AUSTRALIA",0
2721,"""Worcester""",-33.65,19.43,,7,"WORCESTER|SOUTH AFRICA",0
2722,"""Villa Mercedes""",-33.67,-65.45,,15,"VILLA MERCEDES|ARGENTINA",0
2728,"""Mona Vale""",-33.67,151.29,,11,"MONA VALE|AUSTRALIA",0
2729,"""San Pedro""",-33.68,-59.67,,8,"SAN PEDRO|ARGENTINA",0
2732,"""Katanning""",-33.68,117.55,,27,"KATANNING|AUSTRALIA",0
2737,"""Springwood""",-33.69,150.57,,10,"SPRINGWOOD|AUSTRALIA",0
2742,"""Hornsby Hts""",-33.7,151.09,,47,"HORNSBY HTS|AUSTRALIA;HORNSBY|AUSTRALIA",0
2745,"""Katoomba""",-33.71,150.31,,6,"KATOOMBA|AUSTRALIA",0
2749,"""Wahroonga""",-33.71,151.11,,20,"WAHROONGA|AUSTRALIA",0
2751,"""St Ives Chase""",-33.71,151.16,,5,"ST IVES CHASE|AUSTRALIA",0
2752,"""Paarl""",-33.71,18.97,,5,"PAARL|SOUTH AFRICA",0
2759,"""Thornleigh""",-33.72,151.08,,5,"THORNLEIGH|AUSTRALIA",0
2762,"""Venado Tuerto""",-33.73,-61.98,,17,"VENADO TUERTO|ARGENTINA",0
2767,"""Castle Hill""",-33.73,151,,19,"CASTLE HILL|AUSTRALIA",0
2768,"""Pennant Hills""",-33.73,151.07,,10,"PENNANT HILLS|AUSTRALIA",0
2769,"""Turramurra""",-33.73,151.12,,21,"TURRAMURRA|AUSTRALIA",0
2770,"""Miri""",-33.73,151.16,,16,"MIRI|AUSTRALIA;ST IVES|AUSTRALIA",0
2776,"""W Pennant Hills""",-33.74,151.03,,19,"W PENNANT HILLS|AUSTRALIA;WEST PENNANT HILLS|AUSTRALIA",0
2777,"""Pymble""",-33.74,151.13,,59,"PYMBLE|AUSTRALIA",0
2782,"""Au Penrith Sth Dc""",-33.75,150.69,,1502,"AU PENRITH STH DC|AUSTRALIA;PENRITH DC|AUSTRALIA;PENRITH MC|AUSTRALIA;PENRITH S DCL|AUSTRALIA;PENRITH S DCNSW|AUSTRALIA;PENRITH S DC|AUSTRALIA;PENRITH S DELIVERY CTR|AUSTRALIA;PENRITH S DISTRIBUT CTR|AUSTRALIA;PENRITH SO DC|AUSTRALIA;PENRITH STH DC|AUSTRA",0
2783,"""Baulkham Hills""",-33.75,150.98,,14,"BAULKHAM HILLS|AUSTRALIA",0
2784,"""Beecroft""",-33.75,151.06,,90,"BEECROFT|AUSTRALIA",0
2785,"""Cheltenham""",-33.75,151.07,,55,"CHELTENHAM|AUSTRALIA",0
2788,"""Frenchs Forest""",-33.75,151.23,,21,"FRENCHS FOREST|AUSTRALIA",0
2790,"""Dee Why""",-33.75,151.28,,10,"DEE WHY|AUSTRALIA",0
2791,"""Kingswood""",-33.76,150.71,,77,"KINGSWOOD|AUSTRALIA",0
2792,"""Mt Druitt""",-33.76,150.81,,8,"MT DRUITT|AUSTRALIA",0
2794,"""Killara Sydney""",-33.76,151.15,,32,"KILLARA SYDNEY|AUSTRALIA;KILLARA|AUSTRALIA",0
2796,"""Brookvale""",-33.76,151.27,,23,"BROOKVALE|AUSTRALIA",0
2799,"""Penrith South Dc""",-33.77,150.69,,5,"PENRITH SOUTH DC|AUSTRALIA;S PENRITH|AUSTRALIA;SOUTH PENRITH|AUSTRALIA",0
2803,"""Blacktown""",-33.77,150.9,,47,"BLACKTOWN|AUSTRALIA",0
2807,"""Carlingford""",-33.77,151.05,,12,"CARLINGFORD|AUSTRALIA",0
2809,"""Lindfield""",-33.77,151.16,,312,"LINDFIELD|AUSTRALIA",0
2811,"""Harbord""",-33.77,151.28,,7,"HARBORD|AUSTRALIA",0
2813,"""Marsfield""",-33.78,151.1,,31,"MARSFIELD|AUSTRALIA",0
2815,"""W Lindfield""",-33.78,151.15,,9,"W LINDFIELD|AUSTRALIA",0
2816,"""Roseville""",-33.78,151.17,,24,"ROSEVILLE|AUSTRALIA",0
2817,"""Manly Vale""",-33.78,151.26,,24,"MANLY VALE|AUSTRALIA",0
2821,"""N Parramatta""",-33.79,151.01,,8,"N PARRAMATTA|AUSTRALIA",0
2825,"""Eastwood""",-33.79,151.08,,41,"EASTWOOD|AUSTRALIA",0
2826,"""N Ryde Sydney""",-33.79,151.11,,2442,"N RYDE SYDNEY|AUSTRALIA;N RYDE|AUSTRALIA",0
2827,"""Chatswood W""",-33.79,151.18,,239,"CHATSWOOD W|AUSTRALIA;CHATSWOOD|AUSTRALIA",0
2830,"""Balgowlah Hts""",-33.79,151.26,,11,"BALGOWLAH HTS|AUSTRALIA;BALGOWLAH|AUSTRALIA",0
2831,"""Fairlight""",-33.79,151.27,,5,"FAIRLIGHT|AUSTRALIA",0
2832,"""Manly W""",-33.79,151.28,,41,"MANLY W|AUSTRALIA;MANLY|AUSTRALIA",0
2836,"""Prospect""",-33.8,150.91,,6,"PROSPECT|AUSTRALIA",0
2837,"""Wentworthville""",-33.8,150.97,,216,"WENTWORTHVILLE|AUSTRALIA",0
2838,"""Parramatta Bc""",-33.8,151.01,,20,"PARRAMATTA BC|AUSTRALIA;PARRAMATTA BC|PEOPLES R CHINA",0
2840,"""W Ryde""",-33.8,151.08,,42,"W RYDE|AUSTRALIA;WEST RYDE|AUSTRALIA",0
2841,"""Artarmon""",-33.8,151.18,,13,"ARTARMON|AUSTRALIA",0
2842,"""Willoughby""",-33.8,151.19,,5,"WILLOUGHBY|AUSTRALIA",0
2843,"""Castlecrag""",-33.8,151.21,,7,"CASTLECRAG|AUSTRALIA",0
2846,"""Westmead""",-33.81,150.98,,3367,"WESTMEAD|AUSTRALIA",0
2847,"""Parramatta Business Ctr""",-33.81,151,,190,"PARRAMATTA BUSINESS CTR|AUSTRALIA;PARRAMATTA PK|AUSTRALIA;PARRAMATTA|AUSTRALIA",0
2848,"""Rydalmere Bc""",-33.81,151.04,,12,"RYDALMERE BC|AUSTRALIA;RYDALMERE|AUSTRALIA",0
2850,"""Meadowbank""",-33.81,151.09,,5,"MEADOWBANK|AUSTRALIA",0
2851,"""Ryde""",-33.81,151.1,,116,"RYDE|AUSTRALIA",0
2852,"""Lane Cove W""",-33.81,151.16,,33,"LANE COVE W|AUSTRALIA;LANE COVE|AUSTRALIA",0
2854,"""Beauty Point""",-33.81,151.23,,5,"BEAUTY POINT|AUSTRALIA",0
2856,"""Parklands""",-33.81,18.5,,6,"PARKLANDS|SOUTH AFRICA",0
2858,"""Australia Rhodes""",-33.82,151.08,,7,"AUSTRALIA RHODES|AUSTRALIA;RHODES|AUSTRALIA",0
2861,"""Gore Hill""",-33.82,151.18,,98,"GORE HILL|AUSTRALIA;GREENWICH|AUSTRALIA;WESTBOURNE ST GORE HILL|AUSTRALIA",0
2862,"""St Leonards""",-33.82,151.19,,1481,"ST LEONARDS|AUSTRALIA",0
2864,"""Cremorne""",-33.82,151.22,,24,"CREMORNE|AUSTRALIA;CREMORNE|MD",0
2865,"""Balmoral""",-33.82,151.24,,57,"BALMORAL|AUSTRALIA;MOSMAN PK|AUSTRALIA;MOSMAN|AUSTRALIA",0
2867,"""Clare""",-33.83,138.61,,6,"CLARE|AUSTRALIA",0
2869,"""Granville""",-33.83,151,,13,"GRANVILLE|AUSTRALIA",0
2871,"""Newington""",-33.83,151.05,,5,"NEWINGTON|AUSTRALIA",0
2872,"""Gladesville""",-33.83,151.12,,21,"GLADESVILLE|AUSTRALIA",0
2873,"""Hunters Hill""",-33.83,151.15,,5,"HUNTERS HILL|AUSTRALIA",0
2874,"""Waverton""",-33.83,151.19,,13,"WAVERTON|AUSTRALIA;WOLLSTONECRAFT|AUSTRALIA",0
2875,"""N Sydney""",-33.83,151.2,,39,"N SYDNEY|AUSTRALIA;NORTH SYDNEY|AUSTRALIA",0
2876,"""Neutral Bay""",-33.83,151.21,,7,"NEUTRAL BAY|AUSTRALIA",0
2878,"""Durbanville""",-33.83,18.64,,9,"DURBANVILLE|SOUTH AFRICA",0
2880,"""Auburn Village""",-33.84,151.02,,6,"AUBURN VILLAGE|AUSTRALIA;AUBURN|AUSTRALIA",0
2882,"""Woolwich""",-33.84,151.16,,7,"WOOLWICH|AUSTRALIA",0
2883,"""Kirribilli""",-33.84,151.21,,7,"KIRRIBILLI|AUSTRALIA;MILSONS POINT|AUSTRALIA",0
2885,"""Esperance""",-33.85,121.89,,17,"ESPERANCE|AUSTRALIA",0
2887,"""Smithfield""",-33.85,150.94,,16,"SMITHFIELD|AUSTRALIA",0
2888,"""Concord Sydney""",-33.85,151.1,,415,"CONCORD SYDNEY|AUSTRALIA;CONCORD|AUSTRALIA;SYDNEY CONCORD|AUSTRALIA",0
2889,"""Drummoyne""",-33.85,151.15,,6,"DRUMMOYNE|AUSTRALIA",0
2890,"""Balmain""",-33.85,151.17,,52,"BALMAIN|AUSTRALIA",0
2893,"""Vaucluse""",-33.85,151.27,,6,"VAUCLUSE|AUSTRALIA",0
2895,"""Scotsville""",-33.85,18.7,,870,"SCOTSVILLE|SOUTH AFRICA;SCOTTSVILE|SOUTH AFRICA;SCOTTSVILLE PIETERMARITZ|SOUTH AFRICA;SCOTTSVILLE|SOUTH AFRICA;SOCTTSVILLE|SOUTH AFRICA",0
2896,"""Lidcombe Nsw""",-33.86,151.04,,760,"LIDCOMBE NSW|AUSTRALIA;LIDCOMBE|AUSTRALIA;LIDCOMB|AUSTRALIA",0
2900,"""Rozelle""",-33.86,151.17,,39,"ROZELLE|AUSTRALIA",0
2901,"""Aus Sydney""",-33.86,151.2,,41532,"AUS SYDNEY|AUSTRALIA;E SYDNEY|AUSTRALIA;HAMPEDEN SYDNEY|VA;HAMPTON SYDNEY|VA;S SYDNEY HUB|AUSTRALIA;SYDNEY OLYMP PK|AUSTRALIA;SYDNEY S PO|AUSTRALIA;SYDNEY|AUSTR.;SYDNEY|AUSTRALIA;SYDNEY|MT;SYDNEY|TX",0
2902,"""Woolloomooloo""",-33.86,151.21,,6,"WOOLLOOMOOLOO|AUSTRALIA",0
2904,"""Fairfield""",-33.87,150.95,,161,"FAIRFIELD|AUSTRALIA",0
2906,"""Strathfield""",-33.87,151.09,,53,"STRATHFIELD|AUSTRALIA",0
2907,"""Five Dock""",-33.87,151.12,,15,"FIVE DOCK|AUSTRALIA",0
2909,"""Glebe""",-33.87,151.18,,31,"GLEBE|AUSTRALIA",0
2910,"""Darling Harbour""",-33.87,151.19,,49,"DARLING HARBOUR|AUSTRALIA;LITTLE MT|AUSTRALIA;PYRMONT|AUSTRALIA;ULTIMO|AUSTRALIA",0
2912,"""St James""",-33.87,151.21,,132,"ST JAMES|AUSTRALIA;SURRY HILLS SYDNEY|AUSTRALIA;SURRY HILLS|AUSTRALIA;SURRYHILLS|AUSTRALIA",0
2913,"""Darlinghurst Sydney""",-33.87,151.22,,1456,"DARLINGHURST SYDNEY|AUSTRALIA;DARLINGHURST|AUSTRALIA;ELIZABETH BAY|AUSTRALIA;KINGS CROSS|AUSTRALIA;POTTS POINT|AUSTRALIA;RUSHCUTTERS BAY|AUSTRALIA;THE ESPLANADE|AUSTRALIA;VICTORIA ST DARLINGHURST|AUSTRALIA",0
2915,"""Double Bay""",-33.87,151.24,,14,"DOUBLE BAY|AUSTRALIA",0
2918,"""Milnerton""",-33.87,18.5,,6,"MILNERTON|SOUTH AFRICA",0
2919,"""Welgemoed""",-33.87,18.61,,6,"WELGEMOED|SOUTH AFRICA",0
2921,"""Kemps Creek""",-33.88,150.79,,19,"KEMPS CREEK|AUSTRALIA",0
2924,"""Villawood""",-33.88,150.98,,6,"VILLAWOOD|AUSTRALIA",0
2925,"""Ashfield""",-33.88,151.12,,24,"ASHFIELD|AUSTRALIA",0
2927,"""Leichhardt""",-33.88,151.15,,7,"LEICHHARDT|AUSTRALIA",0
2928,"""Annandale""",-33.88,151.17,,9,"ANNANDALE|AUSTRALIA;MISSENDEN R|AUSTRALIA",0
2929,"""Camperdown""",-33.88,151.18,,1736,"CAMPERDOWN|AUSTRALIA;FOREST LODGE|AUSTRALIA;UNIVERSITY OF SYDNEY|AUSTRALIA",0
2930,"""Broadway""",-33.88,151.19,,577,"BROADWAY|AUSTRALIA;CHIPPENDALE|AUSTRALIA;SYDNEY BROADWAY|AUSTRALIA",0
2932,"""Iris""",-33.88,151.22,,45,"IRIS|AUSTRALIA;PADDINGTON|AUSTRALIA",0
2933,"""Edgecliff""",-33.88,151.23,,23,"EDGECLIFF|AUSTRALIA",0
2934,"""Woollahra""",-33.88,151.24,,7,"WOOLLAHRA|AUSTRALIA",0
2937,"""Pergamina""",-33.89,-60.56,,34,"PERGAMINA|ARGENTINA;PERGAMINO BA|ARGENTINA;PERGAMINO|ARGENTINA",0
2942,"""Petersham""",-33.89,151.15,,6,"PETERSHAM|AUSTRALIA",0
2943,"""Stanmore""",-33.89,151.16,,5,"STANMORE|AUSTRALIA",0
2944,"""Enmore""",-33.89,151.17,,415,"ENMORE|AUSTRALIA;NEWTOWN SYDNEY|AUSTRALIA;NEWTOWN|AUSTRALIA",0
2946,"""Atp Eveleigh""",-33.89,151.19,,190,"ATP EVELEIGH|AUSTRALIA;DARLINGTON|AUSTRALIA;EVELEIGH|AUSTRALIA;ST REDFERN|AUSTRALIA",0
2947,"""E Balmain""",-33.89,151.2,,79,"E BALMAIN|AUSTRALIA;REDFERN|AUSTRALIA;STRAWBERRY HILLS|AUSTRALIA",0
2950,"""Waverley""",-33.89,151.25,,11,"WAVERLEY|AUSTRALIA",0
2951,"""Bondi Jct""",-33.89,151.26,,44,"BONDI JCT|AUSTRALIA;BONDI JET|AUSTRALIA;BONDI JUNCT|AUSTRALIA;BONDI|AUSTRALIA",0
2952,"""Tamarama""",-33.89,151.27,,8,"TAMARAMA|AUSTRALIA",0
2954,"""Campsie""",-33.9,151.1,,17,"CAMPSIE|AUSTRALIA",0
2958,"""Victoria Pk""",-33.9,151.21,,5,"VICTORIA PK|AUSTRALIA",0
2959,"""Kensington""",-33.9,151.22,,1732,"KENSINGTON|AUSTRALIA",0
2963,"""Parow""",-33.9,18.58,,29,"PAROW|SOUTH AFRICA",0
2964,"""Bellville""",-33.9,18.62,,909,"BELLVILLE|SOUTH AFRICA",0
2968,"""Bankstown""",-33.91,151.03,,88,"BANKSTOWN|AUSTRALIA",0
2973,"""Alexandria""",-33.91,151.19,,31,"ALEXANDRIA|AUSTRALIA",0
2974,"""Rosebery""",-33.91,151.2,,5,"ROSEBERY|AUSTRALIA",0
2976,"""Barker St Randwick""",-33.91,151.23,,2218,"BARKER ST RANDWICK|AUSTRALIA;RANDWICK SYDNEY|AUSTRALIA;RANDWICK|AUSTRALIA",0
2980,"""Cae Town""",-33.91,18.42,,4384,"CAE TOWN|SOUTH AFRICA;CAPE TOWN|SOUTH AFRICA;CAPT TOWN|SOUTH AFRICA;E CAPE|SOUTH AFRICA;LE CAP|SOUTH AFRICA",0
2982,"""Parowvallei""",-33.91,18.59,,6,"PAROWVALLEI|SOUTH AFRICA",0
2984,"""Liverpool Bc""",-33.92,150.92,,539,"LIVERPOOL BC|AUSTRALIA;LIVERPOOL|AUSTRALIA",0
2987,"""Mascot""",-33.92,151.19,,7,"MASCOT|AUSTRALIA",0
2990,"""Coogee""",-33.92,151.25,,36,"COOGEE|AUSTRALIA;S COOGEE|AUSTRALIA",0
2991,"""Florida""",-33.92,18.59,,16,"FLORIDA|SOUTH AFRICA",0
2999,"""Obervatory""",-33.93,18.46,,243,"OBERVATORY|SOUTH AFRICA;OBSERV CAPE TOWN|SOUTH AFRICA;OBSERVATORY|SOUTH AFRICA;OBSERV|SOUTH AFRICA",0
3001,"""Pinelands""",-33.93,18.5,,19,"PINELANDS|SOUTH AFRICA",0
3002,"""Matieland Stellenbosch""",-33.93,18.86,,1848,"MATIELAND STELLENBOSCH|SOUTH AFRICA;STAELLENBOSCH|SOUTH AFRICA;STELLEHBOSCH|SOUTH AFRICA;STELLENBOSCH|SOUTH AFRICA;STELLENBOSH|SOUTH AFRICA",0
3007,"""Botany""",-33.94,151.19,,17,"BOTANY|AUSTRALIA",0
3009,"""Eastgardens""",-33.94,151.22,,7,"EASTGARDENS|AUSTRALIA",0
3010,"""Maroubra""",-33.94,151.24,,9,"MAROUBRA|AUSTRALIA",0
3011,"""Mowbray""",-33.94,18.47,,16,"MOWBRAY|SOUTH AFRICA",0
3022,"""Bexley""",-33.95,151.12,,5,"BEXLEY|AUSTRALIA",0
3027,"""Hurstville Bc""",-33.96,151.1,,100,"HURSTVILLE BC|AUSTRALIA;HURSTVILLE|AUSTRALIA",0
3028,"""Chapel St Kogarah""",-33.96,151.13,,740,"CHAPEL ST KOGARAH|AUSTRALIA;GRAY ST KOGARAH|AUSTRALIA;KOGARAH|AUSTRALIA;ST KOGARAH|AUSTRALIA",0
3030,"""Matraville""",-33.96,151.23,,30,"MATRAVILLE|AUSTRALIA",0
3031,"""Chifley""",-33.96,151.24,,6,"CHIFLEY|AUSTRALIA;MALABAR|AUSTRALIA",0
3032,"""Pb Rondebosch""",-33.96,18.47,,4192,"PB RONDEBOSCH|SOUTH AFRICA;RHONDEBOSCH|SOUTH AFRICA;RODEBOSCH|SOUTH AFRICA;RONDEBOSCH CAPE TOWN|SOUTH AFRICA;RONDEBOSCH CAPE|SOUTH AFRICA;RONDEBOSCH|SOUTH AFRICA;RONDEBOSH|SOUTH AFRICA",0
3034,"""George""",-33.96,22.47,,31,"GEORGE|SOUTH AFRICA",0
3035,"""Port Elizabeth""",-33.96,25.62,,764,"PORT ELIZABETH|SOUTH AFRICA",0
3038,"""Mortdale""",-33.97,151.07,,5,"MORTDALE|AUSTRALIA;OATLEY|AUSTRALIA",0
3043,"""Tygerberg""",-33.97,18.58,,1532,"TYGERBERG|SOUTH AFRICA",0
3045,"""Humewood""",-33.97,25.63,,14,"HUMEWOOD|SOUTH AFRICA",0
3050,"""Little Bay""",-33.98,151.24,,11,"LITTLE BAY|AUSTRALIA",0
3051,"""Claremont Cape Town""",-33.98,18.46,,92,"CLAREMONT CAPE TOWN|SOUTH AFRICA;CLAREMONT|SOUTH AFRICA",0
3052,"""Manenberg""",-33.98,18.55,,5,"MANENBERG|SOUTH AFRICA",0
3055,"""Wentworth Ville""",-33.99,141.85,,5,"WENTWORTH VILLE|AUSTRALIA;WENTWORTH|AUSTRALIA",0
3061,"""Como""",-34,151.06,,5,"COMO|AUSTRALIA",0
3065,"""Cobbitty""",-34.01,150.68,,5,"COBBITTY|AUSTRALIA",0
3066,"""Menai""",-34.01,151.01,,621,"MENAI|AUSTRALIA",0
3069,"""Taren Point""",-34.01,151.12,,5,"TAREN POINT|AUSTRALIA",0
3071,"""Sedgefield""",-34.01,22.8,,9,"SEDGEFIELD|SOUTH AFRICA",0
3078,"""Faure""",-34.02,18.74,,32,"FAURE|SOUTH AFRICA",0
3081,"""Knysna""",-34.03,23.04,,16,"KNYSNA|SOUTH AFRICA",0
3083,"""Narellan Dc""",-34.04,150.73,,21,"NARELLAN DC|AUSTRALIA;NARELLAN|AUSTRALIA",0
3085,"""Lucas Heights""",-34.04,150.98,,48,"LUCAS HEIGHTS|AUSTRALIA",0
3086,"""Caringbah""",-34.04,151.12,,14,"CARINGBAH|AUSTRALIA",0
3088,"""Bergvliet""",-34.04,18.45,,7,"BERGVLIET|SOUTH AFRICA",0
3089,"""Mitchells Plain""",-34.04,18.62,,6,"MITCHELLS PLAIN|SOUTH AFRICA",0
3091,"""Camden""",-34.05,150.69,,490,"CAMDEN|AUSTRALIA",0
3092,"""Mt Annan""",-34.05,150.76,,10,"MT ANNAN|AUSTRALIA",0
3096,"""Cronulla""",-34.05,151.15,,103,"CRONULLA|AUSTRALIA",0
3098,"""Campbelltown""",-34.06,150.81,,167,"CAMPBELLTOWN|AUSTRALIA",0
3105,"""Somerser West""",-34.07,18.84,,113,"SOMERSER WEST|SOUTH AFRICA;SOMERSET WEST|SOUTH AFRICA;SOMERSET WES|SOUTH AFRICA;SOMERSET W|SOUTH AFRICA",0
3112,"""Muizenberg""",-34.1,18.47,,7,"MUIZENBERG|SOUTH AFRICA",0
3117,"""Menangle""",-34.12,150.73,,10,"MENANGLE|AUSTRALIA",0
3121,"""Fish Hoek""",-34.13,18.42,,8,"FISH HOEK|SOUTH AFRICA",0
3125,"""Rancagua""",-34.16,-70.73,,7,"RANCAGUA|CHILE",0
3126,"""Merbein""",-34.16,142.05,,56,"MERBEIN|AUSTRALIA;PMB MERBEIN|AUSTRALIA;S MERBEIN|AUSTRALIA",0
3128,"""Campana""",-34.17,-58.95,,23,"CAMPANA|ARGENTINA",0
3133,"""Mildura""",-34.18,142.16,,36,"MILDURA|AUSTRALIA",0
3138,"""Simons Town""",-34.19,18.43,,11,"SIMONS TOWN|SOUTH AFRICA;SIMONSTOWN|SOUTH AFRICA",0
3140,"""Manjimup""",-34.23,116.14,,18,"MANJIMUP|AUSTRALIA",0
3141,"""Monash Pk""",-34.23,140.55,,104,"MONASH PK|AUSTRALIA;MONASH|AUSTRALIA",0
3152,"""Griffith""",-34.28,146.05,,126,"GRIFFITH|AUSTRALIA",0
3165,"""Fairy Meadow""",-34.39,150.89,,10,"FAIRY MEADOW|AUSTRALIA",0
3166,"""Wits""",-34.39,20.83,,2454,"WITS|SOUTH AFRICA",0
3167,"""Ranegua""",-34.4,-70.86,,15,"RANEGUA|CHILE;RENACA|CHILE;RENGO|CHILE;SEDE RENACA|CHILE",0
3172,"""Gwynneville""",-34.41,150.88,,8,"GWYNNEVILLE|AUSTRALIA",0
3173,"""N Wollongong""",-34.41,150.89,,8,"N WOLLONGONG|AUSTRALIA",0
3175,"""W Wollongong""",-34.42,150.86,,5,"W WOLLONGONG|AUSTRALIA;WOLLONGONG WEST|AUSTRALIA",0
3176,"""Wollongong E""",-34.42,150.89,,4223,"WOLLONGONG E|AUSTRALIA;WOLLONGONG W|AUSTRALIA;WOLLONGONG|AUSTRALIA",0
3177,"""Hermanus""",-34.42,19.24,,35,"HERMANUS|SOUTH AFRICA",0
3185,"""San Fernando Valle Catam""",-34.45,-58.56,,5,"SAN FERNANDO VALLE CATAM|ARGENTINA;SAN FERNANDO|ARGENTINA",0
3186,"""Pilar""",-34.45,-58.91,,33,"PILAR|ARGENTINA",0
3187,"""Bowral""",-34.45,150.38,,8,"BOWRAL|AUSTRALIA;PO BOWRAL|AUSTRALIA",0
3194,"""Colonia""",-34.47,-57.83,,37,"COLONIA|URUGUAY",0
3196,"""San Isidero""",-34.47,-58.52,,54,"SAN ISIDERO|ARGENTINA;SAN ISIDRO|ARGENTINA",0
3198,"""Port Kembla""",-34.47,150.9,,26,"PORT KEMBLA|AUSTRALIA",0
3200,"""Villa Ballester""",-34.48,-58.55,,6,"VILLA BALLESTER|ARGENTINA",0
3202,"""Derqui Pilar""",-34.48,-58.84,,8,"DERQUI PILAR|ARGENTINA;DERQUI|ARGENTINA",0
3203,"""Warrawong""",-34.48,150.88,,5,"WARRAWONG|AUSTRALIA",0
3204,"""San Andres""",-34.49,-58.53,,8,"SAN ANDRES|ARGENTINA",0
3205,"""Los Polvorines""",-34.49,-58.69,,55,"LOS POLVORINES|ARGENTINA",0
3209,"""Gen Roca""",-34.5,-60.87,,9,"GEN ROCA|ARGENTINA",0
3213,"""Cleveland""",-34.5,150.78,,230,"CLEVELAND|AUSTRALIA",0
3214,"""Olivos""",-34.51,-58.49,,7,"OLIVOS|ARGENTINA",0
3216,"""Tanunda""",-34.51,138.96,,10,"TANUNDA|AUSTRALIA",0
3217,"""Vicente Lopez""",-34.52,-58.5,,11,"VICENTE LOPEZ|ARGENTINA",0
3219,"""Canelones""",-34.53,-56.28,,12,"CANELONES|URUGUAY",0
3220,"""Roseworthy Campus""",-34.53,138.74,,117,"ROSEWORTHY CAMPUS|AUSTRALIA;ROSEWORTHY|AUSTRALIA",0
3222,"""Nunez Capital Federal""",-34.55,-58.46,,5,"NUNEZ CAPITAL FEDERAL|ARGENTINA;NUNEZ|ARGENTINA",0
3224,"""San Miguel""",-34.55,-58.71,,9,"SAN MIGUEL|ARGENTINA;SEMINARIO SAN MIGUEL|ARGENTINA",0
3226,"""San Miguel De Tucuman""",-34.56,-58.68,,1450,"SAN MIGUEL DE TUCUMAN|ARGENTINA",0
3227,"""Lujan B""",-34.56,-59.1,,71,"LUJAN B|ARGENTINA;LUJAN|ARGENTINA",0
3228,"""Oak Flats""",-34.56,150.81,,5,"OAK FLATS|AUSTRALIA",0
3233,"""Robertson""",-34.58,150.57,,7,"ROBERTSON|AUSTRALIA",0
3236,"""Pcia R Saenz Pena""",-34.59,-58.53,,12,"PCIA R SAENZ PENA|ARGENTINA;PEIA R SAENZ PENA|ARGENTINA;SAENZ PENA|ARGENTINA",0
3237,"""El Palomar""",-34.59,-58.6,,8,"EL PALOMAR|ARGENTINA",0
3238,"""Hurlingham Buenos Aires""",-34.59,-58.63,,23,"HURLINGHAM BUENOS AIRES|ARGENTINA;HURLINGHAM|ARGENTINA",0
3240,"""Bs As""",-34.6,-58.37,,22279,"BS AS|ARGENTINA;BSAS|ARGENTINA;BUENOS AIRES|ARGENTINA;CA BUENOS AIRES|ARGENTINA;CAPITAL FED BUENOS AIRES|ARGENTINA;CAPITAL FEDERAL|ARGENTINA;CDAD DE BUENOS AIRES|ARGENTINA;CIUDAD BUENOS AIRES|ARGENTINA;CUIDAD DE BUENOS AIRES|ARGENTINA;PCIA BUENOS AIRES|AR",0
3242,"""Yanco""",-34.6,146.41,,36,"YANCO|AUSTRALIA",0
3243,"""Ciudad De Buenos Aires""",-34.61,-58.43,,11,"CIUDAD DE BUENOS AIRES|ARGENTINA;CIUDAD DE BUENOS AIRES|SPAIN",0
3244,"""San Rafael""",-34.61,-68.32,,8,"SAN RAFAEL|ARGENTINA;SAN RAFFAELE|ARGENTINA",0
3248,"""Mt Barker""",-34.62,117.66,,5,"MT BARKER|AUSTRALIA",0
3250,"""Haedo""",-34.63,-58.59,,10,"HAEDO|ARGENTINA",0
3251,"""Moron""",-34.64,-58.61,,28,"MORON|ARGENTINA",0
3252,"""Mercedes""",-34.64,-59.42,,6,"MERCEDES|ARGENTINA;V MERCEDED|ARGENTINA;V MERCEDES|ARGENTINA",0
3253,"""Chacabuco Pedernera""",-34.64,-60.47,,36,"CHACABUCO PEDERNERA|ARGENTINA;CHACABUCO Y PEDERNERA|ARGENTINA;CHACABUCO|ARGENTINA",0
3257,"""Ramos Mejia""",-34.65,-58.55,,6,"RAMOS MEJIA|ARGENTINA",0
3259,"""Castelar Buenos Aires""",-34.66,-58.64,,91,"CASTELAR BUENOS AIRES|ARGENTINA;CASTELAR|ARGENTINA",0
3261,"""Avelianeda""",-34.68,-58.34,,7,"AVELIANEDA|ARGENTINA;AVELLANEDA|ARGENTINA",0
3262,"""Lanus""",-34.69,-58.38,,10,"LANUS|ARGENTINA",0
3264,"""Bernal Buenos Aires""",-34.71,-58.3,,103,"BERNAL BUENOS AIRES|ARGENTINA;BERNAL|ARGENTINA",0
3265,"""Kenmore""",-34.71,149.75,,123,"KENMORE|AUSTRALIA",0
3266,"""Port Lincoln""",-34.72,135.85,,28,"PORT LINCOLN|AUSTRALIA;PT LINCOLN|AUSTRALIA",0
3267,"""Elizabeth""",-34.72,138.66,,5,"ELIZABETH|AUSTRALIA",0
3268,"""Quilmes""",-34.73,-58.27,,19,"QUILMES|ARGENTINA",0
3271,"""Edinburgh Parks""",-34.73,138.64,,177,"EDINBURGH PARKS|AUSTRALIA;EDINBURGH SA|AUSTRALIA;EDINBURGH|AUSTRALIA;RAAF BASE EDINBURGH|AUSTRALIA",0
3274,"""Lomas De Zamora""",-34.74,-58.41,,10,"LOMAS DE ZAMORA|ARGENTINA;TEMPERLEY|ARGENTINA",0
3275,"""Llavallol""",-34.74,-58.42,,17,"LLAVALLOL|ARGENTINA",0
3277,"""Bolivar""",-34.74,138.58,,5,"BOLIVAR|AUSTRALIA",0
3278,"""Elizabeth Vale""",-34.74,138.66,,37,"ELIZABETH VALE|AUSTRALIA",0
3280,"""Narrandera""",-34.74,146.55,,7,"NARRANDERA|AUSTRALIA",0
3281,"""Banfield""",-34.75,-58.4,,5,"BANFIELD|ARGENTINA",0
3283,"""Melbourne E""",-34.75,146.55,,6,"MELBOURNE E|AUSTRALIA",0
3284,"""Goulburn""",-34.75,149.71,,14,"GOULBURN|AUSTRALIA",0
3286,"""Salisbury S""",-34.76,138.64,,5,"SALISBURY S|AUSTRALIA",0
3289,"""Mt Pleasant""",-34.77,139.03,,14,"MT PLEASANT|AUSTRALIA",0
3296,"""Florencio Varela""",-34.8,-58.27,,16,"FLORENCIO VARELA|ARGENTINA",0
3297,"""The Levels""",-34.8,138.61,,16,"THE LEVELS|AUSTRALIA",0
3300,"""Mawson Lakes Campus""",-34.81,138.61,,701,"MAWSON LAKES CAMPUS|AUSTRALIA;MAWSON LAKES SA|AUSTRALIA;MAWSON LAKES|AUSTRALIA",0
3301,"""Zavalla""",-34.82,-60.99,,67,"ZAVALLA|ARGENTINA",0
3304,"""Ingle Farm""",-34.82,138.65,,5,"INGLE FARM|AUSTRALIA",0
3307,"""Modbury""",-34.83,138.69,,10,"MODBURY|AUSTRALIA",0
3312,"""Gilles Plains""",-34.84,138.66,,10,"GILLES PLAINS|AUSTRALIA",0
3315,"""Villa Elisa""",-34.85,-58.07,,36,"VILLA ELISA|ARGENTINA",0
3317,"""Northfield""",-34.85,138.62,,5,"NORTHFIELD|AUSTRALIA",0
3319,"""Oakden""",-34.85,138.64,,5,"OAKDEN|AUSTRALIA",0
3325,"""Ezeiza""",-34.86,-58.52,,22,"EZEIZA|ARGENTINA;PARTIDO DE EZEIZA|ARGENTINA",0
3331,"""Manuel B Gonnet""",-34.87,-58.02,,32,"MANUEL B GONNET|ARGENTINA;MB GONNET|ARGENTINA",0
3334,"""Woodville S""",-34.87,138.53,,984,"WOODVILLE S|AUSTRALIA;WOODVILLE|AUSTRALIA",0
3336,"""Montevideo""",-34.88,-56.16,,3007,"MONTEVIDEO|URUGUAY;MONTEVIDEU|URUGUAY;PISO MONTEVIDEO|URUGUAY",0
3341,"""Newton""",-34.88,138.68,,13,"NEWTON|AUSTRALIA",0
3349,"""Nth Adelaide""",-34.9,138.58,,6,"NTH ADELAIDE|AUSTRALIA;NTH FITZROY|AUSTRALIA",0
3350,"""N Adelaide""",-34.9,138.59,,179,"N ADELAIDE|AUSTRALIA;NORTH ADELAIDE|AUSTRALIA",0
3353,"""Magill Adelaide""",-34.9,138.67,,77,"MAGILL ADELAIDE|AUSTRALIA;MAGILL S|AUSTRALIA;MAGILL|AUSTRALIA",0
3356,"""Cga La Plata""",-34.91,-57.94,,5769,"CGA LA PLATA|ARGENTINA;GONNET LA PLATA|ARGENTINA;LA PLATA|ARGENTINA",0
3357,"""Henley Beach""",-34.91,138.49,,113,"HENLEY BEACH|AUSTRALIA",0
3358,"""Thebarton""",-34.91,138.57,,38,"THEBARTON|AUSTRALIA",0
3359,"""Hackney""",-34.91,138.61,,11,"HACKNEY|AUSTRALIA",0
3360,"""Stepney Adelaide""",-34.91,138.62,,49,"STEPNEY ADELAIDE|AUSTRALIA;STEPNEY|AUSTRALIA",0
3363,"""Miranda""",-34.91,144.6,,17,"MIRANDA|AUSTRALIA",0
3365,"""Underdale""",-34.92,138.54,,57,"UNDERDALE|AUSTRALIA",0
3368,"""Adelaide S""",-34.92,138.59,,16548,"ADELAIDE S|AUSTRALIA;ADELAIDE|AUSTRALIA;N TCE ADELAIDE|AUSTRALIA;PO GLEN OSMOND|AUSTRALIA",0
3369,"""Rundle Mall""",-34.92,138.6,,13,"RUNDLE MALL|AUSTRALIA",0
3370,"""Kent Town""",-34.92,138.61,,27,"KENT TOWN|AUSTRALIA",0
3371,"""Norwood""",-34.92,138.63,,19,"NORWOOD|AUSTRALIA",0
3372,"""Toorak Gardens""",-34.92,138.64,,5,"TOORAK GARDENS|AUSTRALIA",0
3375,"""W Beach""",-34.93,138.5,,57,"W BEACH|AUSTRALIA;WEST BEACH|AUSTRALIA",0
3377,"""Adelaide Bc""",-34.93,138.58,,53,"ADELAIDE BC|AUSTRALIA",0
3378,"""Dulwich""",-34.93,138.63,,9,"DULWICH|AUSTRALIA",0
3384,"""Wayville""",-34.94,138.58,,6,"WAYVILLE|AUSTRALIA",0
3387,"""Glenside""",-34.94,138.64,,56,"GLENSIDE|AUSTRALIA",0
3391,"""Unley S""",-34.95,138.6,,45,"UNLEY S|AUSTRALIA;UNLEY|AUSTRALIA",0
3392,"""Fullarton""",-34.95,138.62,,6,"FULLARTON|AUSTRALIA",0
3401,"""Carlton S""",-34.96,138.62,,24,"CARLTON S|AUSTRALIA;NETHERBY|AUSTRALIA",0
3402,"""Urrbrae""",-34.96,138.63,,74,"URRBRAE|AUSTRALIA;WAITE CAMPUS URRBRAE|AUSTRALIA",0
3403,"""Glen Osmond""",-34.96,138.64,,1277,"GLEN OSMOND|AUSTRALIA",0
3406,"""Curico""",-34.98,-71.24,,14,"CURICO|CHILE",0
3407,"""Glenelg South""",-34.98,138.51,,9,"GLENELG SOUTH|AUSTRALIA;GLENELG S|AUSTRALIA;GLENELG|AUSTRALIA",0
3412,"""Murrumbateman""",-34.99,149.02,,8,"MURRUMBATEMAN|AUSTRALIA",0
3416,"""Marion""",-35.01,138.55,,9,"MARION|AUSTRALIA",0
3419,"""Albany""",-35.02,117.88,,127,"ALBANY|AUSTRALIA;ALBANY|WA",0
